{"Kenya": [{"crossing_name": "Namanga", "latitude": "-2.55", "longitude": "36.783333333"}, {"crossing_name": "Busia", "latitude": "0.460833333", "longitude": "34.110833333"}, {"crossing_name": "Lunga Lunga", "latitude": "-4.55", "longitude": "39.12"}, {"crossing_name": "Loitokitok", "latitude": "-2.925", "longitude": "37.51"}, {"crossing_name": "Moyale", "latitude": "3.527", "longitude": "39.056"}, {"crossing_name": "Nadapal", "latitude": "4.405077", "longitude": "34.283738"}, {"crossing_name": "El Wak", "latitude": "2.81666667", "longitude": "40.93333333"}, {"crossing_name": "Lwakhakha, Kenya", "latitude": "0.79", "longitude": "34.38"}, {"crossing_name": "Mandera", "latitude": "3.916666666", "longitude": "41.833333333"}, {"crossing_name": "Isebania, Kenya", "latitude": "-1.24222222", "longitude": "34.47666667"}, {"crossing_name": "Taveta", "latitude": "-3.4", "longitude": "37.68333333"}, {"crossing_name": "Malaba, Kenya", "latitude": "0.63888889", "longitude": "34.26583333"}, {"crossing_name": "Lokitanyala, Kenya", "latitude": "2.36361111", "longitude": "34.92388889"}, {"crossing_name": "Liboi", "latitude": "0.352", "longitude": "40.872"}, {"crossing_name": "Lafey", "latitude": "3.15083333", "longitude": "41.18638889"}, {"crossing_name": "Suam, Kenya", "latitude": "1.21583333", "longitude": "34.73416667"}, {"crossing_name": "Rhamu", "latitude": "3.9375", "longitude": "41.22027778"}], "Nigeria": [{"crossing_name": "Ipokia", "latitude": "6.618055555", "longitude": "2.810555555"}, {"crossing_name": "Ipokia", "latitude": "6.53333", "longitude": "2.85"}, {"crossing_name": "Daura", "latitude": "13.03638889", "longitude": "8.31777778"}, {"crossing_name": "Baure", "latitude": "12.788888888", "longitude": "8.789166666"}, {"crossing_name": "Baure", "latitude": "12.7833", "longitude": "8.76667"}, {"crossing_name": "Zango", "latitude": "12.9333", "longitude": "8.53333"}, {"crossing_name": "Yewa North", "latitude": "7.14729", "longitude": "2.91795"}, {"crossing_name": "Yewa North", "latitude": "7.15", "longitude": "2.91667"}, {"crossing_name": "Mai'Adua", "latitude": "13.19055556", "longitude": "8.21166667"}], "People's Republic of China": [{"crossing_name": "Futian Port", "latitude": "22.5158", "longitude": "114.069"}, {"crossing_name": "Dandong", "latitude": "40.116666666", "longitude": "124.383333333"}, {"crossing_name": "Ceke, Inner Mongolia", "latitude": "42.56666667", "longitude": "101.3"}, {"crossing_name": "Ceke, Inner Mongolia", "latitude": "42.563393", "longitude": "101.293402"}, {"crossing_name": "Manchouli", "latitude": "49.588055555", "longitude": "117.4525"}, {"crossing_name": "Heung Yuen Wai Control Point", "latitude": "22.55428611", "longitude": "114.15242222"}, {"crossing_name": "Huanggang Port", "latitude": "22.5207", "longitude": "114.075"}, {"crossing_name": "Erenhot", "latitude": "43.6475", "longitude": "111.97667"}, {"crossing_name": "Jeminay County", "latitude": "47.43354", "longitude": "85.86787"}, {"crossing_name": "Changbai Korean Autonomous County", "latitude": "41.416666666", "longitude": "128.2"}, {"crossing_name": "Ji'an", "latitude": "41.12313", "longitude": "126.18146"}, {"crossing_name": "Heishantou", "latitude": "50.20514", "longitude": "119.50787"}, {"crossing_name": "Tacheng", "latitude": "46.85111", "longitude": "83.14875"}, {"crossing_name": "Tacheng", "latitude": "46.74682", "longitude": "82.97898"}, {"crossing_name": "Alashankou", "latitude": "45.171388888", "longitude": "82.573055555"}, {"crossing_name": "Shenzhen Bay Port", "latitude": "22.50388889", "longitude": "113.94472222"}, {"crossing_name": "Fuyong Ferry Terminal", "latitude": "22.6053", "longitude": "113.809"}, {"crossing_name": "Khorgas", "latitude": "44.1256", "longitude": "80.4144"}, {"crossing_name": "Suifenhe", "latitude": "44.39447", "longitude": "131.15629"}, {"crossing_name": "Ruili", "latitude": "24.01151", "longitude": "97.85798"}, {"crossing_name": "Linjiang", "latitude": "41.80821", "longitude": "126.91365"}, {"crossing_name": "Suifenhe", "latitude": "44.39982", "longitude": "131.14775"}, {"crossing_name": "Linjiang", "latitude": "41.84711", "longitude": "126.93006"}, {"crossing_name": "Sha Tau Kok", "latitude": "22.55", "longitude": "114.216666666"}, {"crossing_name": "Hunchun", "latitude": "42.86788", "longitude": "130.35845"}, {"crossing_name": "Hekou Yao Autonomous County", "latitude": "22.51179", "longitude": "103.95988"}, {"crossing_name": "Heihe", "latitude": "50.245833", "longitude": "127.488611"}, {"crossing_name": "Burang Town", "latitude": "30.30128", "longitude": "81.17464"}, {"crossing_name": "Luohu Port", "latitude": "22.52888889", "longitude": "114.11833333"}, {"crossing_name": "Luohu Port", "latitude": "22.53222222", "longitude": "114.11333333"}], "Austria": [{"crossing_name": "Q4299789", "latitude": "48.640278", "longitude": "14.453333"}, {"crossing_name": "Gm\u00fcnd", "latitude": "48.766666666", "longitude": "14.983333333"}, {"crossing_name": "Feldkirch", "latitude": "47.238055555", "longitude": "9.598333333"}, {"crossing_name": "D\u00fcrrnberg", "latitude": "47.665555555", "longitude": "13.089722222"}, {"crossing_name": "Bad Radkersburg", "latitude": "46.689722222", "longitude": "15.988611111"}, {"crossing_name": "Berg", "latitude": "48.103333333", "longitude": "17.037777777"}, {"crossing_name": "Nickelsdorf", "latitude": "47.940555555", "longitude": "17.068888888"}, {"crossing_name": "Kittsee", "latitude": "48.066666666", "longitude": "17.066666666"}, {"crossing_name": "Spielfeld", "latitude": "46.705555555", "longitude": "15.637222222"}, {"crossing_name": "K\u00f6tschach-Mauthen", "latitude": "46.666666666", "longitude": "13.0"}, {"crossing_name": "Kufstein", "latitude": "47.583333333", "longitude": "12.166666666"}, {"crossing_name": "Gro\u00dfgmain", "latitude": "47.725", "longitude": "12.908611111"}, {"crossing_name": "Lustenau", "latitude": "47.4271", "longitude": "9.67114"}, {"crossing_name": "Drasenhofen", "latitude": "48.757222222", "longitude": "16.648888888"}, {"crossing_name": "Jungholz", "latitude": "47.573611111", "longitude": "10.447222222"}, {"crossing_name": "Klingenbach", "latitude": "47.753333333", "longitude": "16.538611111"}], "United States of America": [{"crossing_name": "Beecher Falls", "latitude": "45.0081", "longitude": "-71.5078"}, {"crossing_name": "Laredo", "latitude": "27.506111111", "longitude": "-99.507222222"}, {"crossing_name": "Detroit", "latitude": "42.331666666", "longitude": "-83.0475"}, {"crossing_name": "Beebe Plain", "latitude": "45.00666667", "longitude": "-72.14116667"}, {"crossing_name": "Lochiel", "latitude": "31.335", "longitude": "-110.625"}, {"crossing_name": "Port Huron", "latitude": "42.980277777", "longitude": "-82.4375"}, {"crossing_name": "San Diego", "latitude": "32.715", "longitude": "-117.1625"}, {"crossing_name": "San Jer\u00f3nimo, Chihuahua", "latitude": "31.782", "longitude": "-106.682"}, {"crossing_name": "International Falls", "latitude": "48.601669444", "longitude": "-93.403680555"}, {"crossing_name": "Eagle Pass", "latitude": "28.7106", "longitude": "-100.489"}, {"crossing_name": "Richford", "latitude": "44.99699", "longitude": "-72.67124"}, {"crossing_name": "Del Rio", "latitude": "29.370833333", "longitude": "-100.895833333"}, {"crossing_name": "Naco", "latitude": "31.3372", "longitude": "-109.944"}, {"crossing_name": "Richford", "latitude": "44.988333333", "longitude": "-72.647777777"}, {"crossing_name": "Texarkana", "latitude": "33.43722222", "longitude": "-94.0675"}, {"crossing_name": "El Paso", "latitude": "31.759166666", "longitude": "-106.488611111"}, {"crossing_name": "Niagara Falls", "latitude": "43.093889", "longitude": "-79.016944"}, {"crossing_name": "Buffalo", "latitude": "42.904722222", "longitude": "-78.849444444"}, {"crossing_name": "Nogales", "latitude": "31.353888888", "longitude": "-110.939166666"}, {"crossing_name": "Brownsville", "latitude": "25.930277777", "longitude": "-97.484444444"}, {"crossing_name": "San Luis", "latitude": "32.496111111", "longitude": "-114.768333333"}, {"crossing_name": "California's 51st congressional district", "latitude": "32.8", "longitude": "-116.0"}, {"crossing_name": "Hidalgo", "latitude": "26.1044", "longitude": "-98.2464"}, {"crossing_name": "Presidio", "latitude": "29.561388888", "longitude": "-104.366388888"}, {"crossing_name": "El Paso\u2013Ju\u00e1rez", "latitude": "31.73944444", "longitude": "-106.48694444"}, {"crossing_name": "Yuma", "latitude": "32.692222222", "longitude": "-114.615277777"}, {"crossing_name": "Anapra", "latitude": "31.77444444", "longitude": "-106.56"}, {"crossing_name": "Anapra", "latitude": "31.7842", "longitude": "-106.563"}, {"crossing_name": "Mount Signal Solar", "latitude": "32.6733", "longitude": "-115.64"}, {"crossing_name": "Alburgh", "latitude": "44.97504", "longitude": "-73.30013"}, {"crossing_name": "Imperial Beach", "latitude": "32.578333333", "longitude": "-117.117222222"}, {"crossing_name": "San Elizario", "latitude": "31.582777777", "longitude": "-106.265833333"}, {"crossing_name": "Roma", "latitude": "26.4061", "longitude": "-99.0056"}, {"crossing_name": "Douglas", "latitude": "31.345", "longitude": "-109.541388888"}, {"crossing_name": "California's 52nd congressional district", "latitude": "32.820833333", "longitude": "-116.890277777"}, {"crossing_name": "Sault Ste. Marie", "latitude": "46.496944444", "longitude": "-84.345555555"}, {"crossing_name": "Columbus", "latitude": "31.8275", "longitude": "-107.64"}, {"crossing_name": "Calexico", "latitude": "32.678055555", "longitude": "-115.497777777"}, {"crossing_name": "Calexico\u2013Mexicali", "latitude": "32.65", "longitude": "-115.45"}], "Switzerland": [{"crossing_name": "La Cure", "latitude": "46.4649", "longitude": "6.07278"}, {"crossing_name": "Sevelen", "latitude": "47.120430555", "longitude": "9.485688888"}, {"crossing_name": "Rheinau", "latitude": "47.645833333", "longitude": "8.606666666"}, {"crossing_name": "Kleinl\u00fctzel", "latitude": "47.427777777", "longitude": "7.416666666"}, {"crossing_name": "Rekingen", "latitude": "47.570555555", "longitude": "8.323611111"}, {"crossing_name": "Lucelle", "latitude": "47.42027778", "longitude": "7.24472222"}, {"crossing_name": "Hallau", "latitude": "47.6966", "longitude": "8.4578"}, {"crossing_name": "Wilchingen", "latitude": "47.666388888", "longitude": "8.466666666"}, {"crossing_name": "Bad Zurzach", "latitude": "47.587222222", "longitude": "8.294444444"}, {"crossing_name": "Stein", "latitude": "47.544166666", "longitude": "7.951388888"}, {"crossing_name": "Wil", "latitude": "47.605833333", "longitude": "8.5075"}, {"crossing_name": "Le Grand-Saconnex", "latitude": "46.233333333", "longitude": "6.116666666"}, {"crossing_name": "Saint-Gingolph", "latitude": "46.4", "longitude": "6.8"}, {"crossing_name": "Leibstadt", "latitude": "47.590277777", "longitude": "8.176388888"}, {"crossing_name": "Koblenz", "latitude": "47.609722222", "longitude": "8.237222222"}, {"crossing_name": "Saint-Gingolph", "latitude": "46.393409", "longitude": "6.804338"}, {"crossing_name": "Riehen", "latitude": "47.57942", "longitude": "7.65117"}, {"crossing_name": "Kaiserstuhl", "latitude": "47.568611111", "longitude": "8.419166666"}, {"crossing_name": "Sennwald", "latitude": "47.266388888", "longitude": "9.5"}, {"crossing_name": "Dardagny", "latitude": "46.1952", "longitude": "5.9946"}, {"crossing_name": "Wasterkingen", "latitude": "47.591666666", "longitude": "8.474166666"}, {"crossing_name": "T\u00e4germoos", "latitude": "47.66", "longitude": "9.15"}, {"crossing_name": "Sennwald", "latitude": "47.24391", "longitude": "9.47681"}, {"crossing_name": "Neuhausen am Rheinfall", "latitude": "47.683055555", "longitude": "8.616666666"}, {"crossing_name": "Chiasso", "latitude": "45.83535", "longitude": "9.03203"}, {"crossing_name": "Tr\u00fcbbach", "latitude": "47.07166667", "longitude": "9.48055556"}, {"crossing_name": "Bellevue", "latitude": "46.25", "longitude": "6.15"}, {"crossing_name": "Meyrin", "latitude": "46.23222", "longitude": "6.07911"}, {"crossing_name": "Ponte Tresa", "latitude": "45.9702", "longitude": "8.85911"}, {"crossing_name": "R\u00fcdlingen", "latitude": "47.566666666", "longitude": "8.566388888"}, {"crossing_name": "Kreuzlingen", "latitude": "47.645833333", "longitude": "9.178333333"}, {"crossing_name": "Buchs", "latitude": "47.165555555", "longitude": "9.471111111"}, {"crossing_name": "Trasadingen", "latitude": "47.66979", "longitude": "8.4262"}, {"crossing_name": "Laufenburg", "latitude": "47.560833333", "longitude": "8.059444444"}, {"crossing_name": "Basel", "latitude": "47.560555555", "longitude": "7.590555555"}, {"crossing_name": "Rafz", "latitude": "47.612222222", "longitude": "8.540833333"}, {"crossing_name": "Schleitheim", "latitude": "47.7493", "longitude": "8.4851"}], "Principality of Bulgaria": [{"crossing_name": "Vidin", "latitude": "43.98869", "longitude": "22.874058"}], "North Korea": [{"crossing_name": "Sinuiju", "latitude": "40.1", "longitude": "124.4"}, {"crossing_name": "Onsong County", "latitude": "42.95722", "longitude": "129.99333"}, {"crossing_name": "Onsong County", "latitude": "42.955555555", "longitude": "129.991666666"}, {"crossing_name": "Manpo", "latitude": "41.157", "longitude": "126.29"}, {"crossing_name": "Hyesan", "latitude": "41.4", "longitude": "128.183333333"}, {"crossing_name": "Namyang Workers' District", "latitude": "42.951666666", "longitude": "129.859166666"}, {"crossing_name": "Panmunjeom", "latitude": "37.955555555", "longitude": "126.677777777"}, {"crossing_name": "Tumangang", "latitude": "42.421683333", "longitude": "130.602552777"}], "India": [{"crossing_name": "Jhulaghat", "latitude": "29.571", "longitude": "80.375"}, {"crossing_name": "Barhani Bazar", "latitude": "27.513611111", "longitude": "82.786111111"}, {"crossing_name": "Jaigaon", "latitude": "26.866666666", "longitude": "89.383333333"}, {"crossing_name": "Dharchula", "latitude": "29.8485", "longitude": "80.543"}, {"crossing_name": "Bhimnagar, Supaul", "latitude": "26.4983", "longitude": "86.9659"}, {"crossing_name": "Rikhawdar", "latitude": "23.3652465", "longitude": "93.3855078"}, {"crossing_name": "Phulbari, Jalpaiguri", "latitude": "26.6363", "longitude": "88.4166"}, {"crossing_name": "Jarwa", "latitude": "27.65", "longitude": "82.516666666"}, {"crossing_name": "Kunauli", "latitude": "26.4", "longitude": "86.7"}, {"crossing_name": "Raxaul", "latitude": "26.9833", "longitude": "84.85"}, {"crossing_name": "Mahadipur", "latitude": "24.8566", "longitude": "88.1248"}, {"crossing_name": "Singabad", "latitude": "24.94371", "longitude": "88.33888"}, {"crossing_name": "Khunwa", "latitude": "27.4558", "longitude": "82.9936"}, {"crossing_name": "Kaho, India", "latitude": "28.3043174", "longitude": "97.0242769"}, {"crossing_name": "Sukhiapokhri", "latitude": "27.0", "longitude": "88.14"}, {"crossing_name": "Singabad", "latitude": "24.9183", "longitude": "88.2898"}, {"crossing_name": "Rupaidiha", "latitude": "28.0218", "longitude": "81.6021"}, {"crossing_name": "Gauriphanta", "latitude": "28.68113", "longitude": "80.55434"}, {"crossing_name": "Galgalia", "latitude": "26.5273", "longitude": "88.1134"}, {"crossing_name": "Nampong", "latitude": "27.28", "longitude": "96.13"}, {"crossing_name": "Dhanushkodi", "latitude": "9.17777778", "longitude": "79.41666667"}, {"crossing_name": "Jainagar", "latitude": "26.58333333", "longitude": "86.15"}, {"crossing_name": "Radhikapur", "latitude": "25.642778", "longitude": "88.446944"}, {"crossing_name": "Behiang", "latitude": "24.007072222", "longitude": "93.557675"}, {"crossing_name": "Sursand", "latitude": "26.65", "longitude": "85.7167"}, {"crossing_name": "Jogbani", "latitude": "26.402397", "longitude": "87.265639"}, {"crossing_name": "Dawki", "latitude": "25.18333333", "longitude": "92.01666667"}, {"crossing_name": "Munabao", "latitude": "25.75", "longitude": "70.2833"}, {"crossing_name": "Petrapole", "latitude": "23.038318", "longitude": "88.883793"}, {"crossing_name": "Nautanwa", "latitude": "27.43", "longitude": "83.42"}, {"crossing_name": "Banbasa", "latitude": "28.979913888", "longitude": "80.080030555"}, {"crossing_name": "Sonauli", "latitude": "27.473806", "longitude": "83.46913"}, {"crossing_name": "Hussainiwala", "latitude": "30.99765556", "longitude": "74.54711667"}, {"crossing_name": "Bairgania", "latitude": "26.75", "longitude": "85.2833"}, {"crossing_name": "Nagar Changrabandha", "latitude": "26.4131", "longitude": "88.9193"}, {"crossing_name": "Zokhawthar", "latitude": "23.3652465", "longitude": "93.3855078"}, {"crossing_name": "Moreh", "latitude": "24.351719444", "longitude": "94.342169444"}, {"crossing_name": "Attari", "latitude": "31.600833333", "longitude": "74.605555555"}], "Iran": [{"crossing_name": "Taybad", "latitude": "34.74", "longitude": "60.7756"}, {"crossing_name": "Taybad", "latitude": "34.74", "longitude": "60.775555555"}, {"crossing_name": "Serow", "latitude": "37.7275", "longitude": "44.64277778"}, {"crossing_name": "Sarakhs", "latitude": "36.544722222", "longitude": "61.1575"}, {"crossing_name": "Astara", "latitude": "38.429166666", "longitude": "48.871944444"}, {"crossing_name": "Astara", "latitude": "38.430833333", "longitude": "48.87"}, {"crossing_name": "Shand-e Dinar", "latitude": "31.56916667", "longitude": "60.8275"}, {"crossing_name": "Salehabad", "latitude": "33.469722222", "longitude": "46.188055555"}, {"crossing_name": "Marivan", "latitude": "35.526944444", "longitude": "46.176111111"}, {"crossing_name": "Chazabeh", "latitude": "31.8539217", "longitude": "47.8028794"}, {"crossing_name": "Shalamcheh", "latitude": "30.5", "longitude": "48.066666666"}, {"crossing_name": "Milak, Sistan and Baluchestan", "latitude": "30.966666666", "longitude": "61.816666666"}, {"crossing_name": "Bazargan", "latitude": "39.391388888", "longitude": "44.3875"}, {"crossing_name": "Khosravi", "latitude": "34.39277778", "longitude": "45.47416667"}, {"crossing_name": "Pishin", "latitude": "26.079444444", "longitude": "61.753888888"}, {"crossing_name": "Mirjaveh", "latitude": "29.0", "longitude": "61.45"}, {"crossing_name": "Bilesuvar", "latitude": "39.378611111", "longitude": "48.361666666"}, {"crossing_name": "Mehran", "latitude": "33.122222222", "longitude": "46.164722222"}], "Libya": [{"crossing_name": "Ghadames", "latitude": "30.133333333", "longitude": "9.5"}, {"crossing_name": "Wazzin", "latitude": "31.942222222", "longitude": "10.6625"}, {"crossing_name": "Ras Ajdir", "latitude": "33.1481", "longitude": "11.5663"}, {"crossing_name": "Musaid", "latitude": "31.575833333", "longitude": "25.039722222"}], "Belgium": [{"crossing_name": "Steinebr\u00fcck", "latitude": "50.2375", "longitude": "6.184"}, {"crossing_name": "Comines-Warneton", "latitude": "50.766666666", "longitude": "3.0"}, {"crossing_name": "Antwerp", "latitude": "51.221111111", "longitude": "4.399722222"}, {"crossing_name": "Torgny", "latitude": "49.5072", "longitude": "5.4758"}, {"crossing_name": "Vis\u00e9", "latitude": "50.733333333", "longitude": "5.683333333"}, {"crossing_name": "Meersel-Dreef", "latitude": "51.4978", "longitude": "4.775"}, {"crossing_name": "Momignies", "latitude": "50.029444", "longitude": "4.166667"}, {"crossing_name": "Aubange", "latitude": "49.566666666", "longitude": "5.805"}, {"crossing_name": "De Panne", "latitude": "51.1019", "longitude": "2.5917"}, {"crossing_name": "Gouvy", "latitude": "50.18737", "longitude": "5.94489"}, {"crossing_name": "Wervik", "latitude": "50.7797", "longitude": "3.04"}, {"crossing_name": "Baarle", "latitude": "51.443611111", "longitude": "4.93"}, {"crossing_name": "Poppel", "latitude": "51.4461", "longitude": "5.0403"}, {"crossing_name": "Goegnies-Chauss\u00e9e", "latitude": "50.3422836", "longitude": "3.9442029"}, {"crossing_name": "Baarle-Hertog", "latitude": "51.438333333", "longitude": "4.931666666"}, {"crossing_name": "Erquelinnes", "latitude": "50.3101002", "longitude": "4.1218718"}, {"crossing_name": "Martelange", "latitude": "49.832777777", "longitude": "5.739444444"}, {"crossing_name": "Athus", "latitude": "49.563333333", "longitude": "5.833333333"}, {"crossing_name": "Warneton, Belgium", "latitude": "50.7517", "longitude": "2.9306"}, {"crossing_name": "Estaimpuis", "latitude": "50.675580555", "longitude": "3.275822222"}, {"crossing_name": "Minderhout", "latitude": "51.4175", "longitude": "4.7625"}, {"crossing_name": "Maaseik", "latitude": "51.101944444", "longitude": "5.785555555"}, {"crossing_name": "Koewacht", "latitude": "51.233333333", "longitude": "3.966666666"}, {"crossing_name": "Mouscron", "latitude": "50.7444", "longitude": "3.2156"}, {"crossing_name": "Eynatten", "latitude": "50.691944444", "longitude": "6.083333333"}, {"crossing_name": "Qui\u00e9vrain", "latitude": "50.4048739", "longitude": "3.6829049"}, {"crossing_name": "Grand-Reng", "latitude": "50.3287642", "longitude": "4.0705909"}, {"crossing_name": "Sterpenich", "latitude": "49.647222222", "longitude": "5.891666666"}, {"crossing_name": "Hauset", "latitude": "50.71055556", "longitude": "6.06972222"}, {"crossing_name": "Essen", "latitude": "51.467777777", "longitude": "4.47"}, {"crossing_name": "Putte-Kapellen", "latitude": "51.3598", "longitude": "4.39436"}, {"crossing_name": "Zondereigen", "latitude": "51.4067", "longitude": "4.8931"}, {"crossing_name": "Comines", "latitude": "50.7683", "longitude": "2.9983"}, {"crossing_name": "Kanne", "latitude": "50.8131", "longitude": "5.6706"}, {"crossing_name": "De Klinge", "latitude": "51.2564", "longitude": "4.09"}], "Germany": [{"crossing_name": "Steinebr\u00fcck", "latitude": "50.2375", "longitude": "6.184"}, {"crossing_name": "Frankfurt (Oder)", "latitude": "52.341944", "longitude": "14.551667"}, {"crossing_name": "Podrosche", "latitude": "51.470833333", "longitude": "14.945833333"}, {"crossing_name": "B\u00fcsingen am Hochrhein", "latitude": "47.696944444", "longitude": "8.690277777"}, {"crossing_name": "Perl", "latitude": "49.466666666", "longitude": "6.366666666"}, {"crossing_name": "Forst (Lausitz)", "latitude": "51.733333333", "longitude": "14.633333333"}, {"crossing_name": "Scheibenhardt", "latitude": "48.983055555", "longitude": "8.133055555"}, {"crossing_name": "Passau", "latitude": "48.566666666", "longitude": "13.466666666"}, {"crossing_name": "Waldshut-Tiengen", "latitude": "47.623055555", "longitude": "8.214444444"}, {"crossing_name": "Hohenwutzen", "latitude": "52.8444", "longitude": "14.1183"}, {"crossing_name": "K\u00fcstrin-Kietz", "latitude": "52.5692", "longitude": "14.6111"}, {"crossing_name": "K\u00fcstrin-Kietz", "latitude": "52.56675", "longitude": "14.60632"}, {"crossing_name": "Schwedt/Oder", "latitude": "53.063055555", "longitude": "14.283055555"}, {"crossing_name": "Dogern", "latitude": "47.608611111", "longitude": "8.1675"}, {"crossing_name": "Hohentengen am Hochrhein", "latitude": "47.57", "longitude": "8.433888888"}, {"crossing_name": "L\u00f6rrach", "latitude": "47.615555555", "longitude": "7.661388888"}, {"crossing_name": "Seifhennersdorf", "latitude": "50.933333333", "longitude": "14.616666666"}, {"crossing_name": "Aachen", "latitude": "50.776207", "longitude": "6.083788"}, {"crossing_name": "Zittau", "latitude": "50.896111111", "longitude": "14.807222222"}, {"crossing_name": "G\u00f6rlitz", "latitude": "51.152777777", "longitude": "14.987222222"}, {"crossing_name": "Kehl", "latitude": "48.571111111", "longitude": "7.808888888"}, {"crossing_name": "Klettgau", "latitude": "47.658333333", "longitude": "8.422777777"}, {"crossing_name": "Mescherin", "latitude": "53.2475", "longitude": "14.431666666"}, {"crossing_name": "Neuenburg am Rhein", "latitude": "47.814722222", "longitude": "7.561944444"}, {"crossing_name": "Blankensee", "latitude": "53.5", "longitude": "14.3"}, {"crossing_name": "Dettighofen", "latitude": "47.623888888", "longitude": "8.483611111"}, {"crossing_name": "Guben", "latitude": "51.953333333", "longitude": "14.716666666"}, {"crossing_name": "Bad S\u00e4ckingen", "latitude": "47.553333333", "longitude": "7.947222222"}, {"crossing_name": "Roden\u00e4s", "latitude": "54.883305555", "longitude": "8.7"}, {"crossing_name": "Bollendorf", "latitude": "49.853055555", "longitude": "6.361666666"}, {"crossing_name": "Harrislee", "latitude": "54.797222222", "longitude": "9.376388888"}, {"crossing_name": "Rostock", "latitude": "54.083333333", "longitude": "12.133333333"}, {"crossing_name": "Nordhorn", "latitude": "52.433333333", "longitude": "7.066666666"}, {"crossing_name": "Weil am Rhein", "latitude": "47.594722222", "longitude": "7.610833333"}, {"crossing_name": "Straelen", "latitude": "51.45", "longitude": "6.266666666"}, {"crossing_name": "Berlin", "latitude": "52.516666666", "longitude": "13.383333333"}, {"crossing_name": "Ludwigsdorf", "latitude": "51.197222", "longitude": "15.0"}, {"crossing_name": "Jestetten", "latitude": "47.652222222", "longitude": "8.570833333"}, {"crossing_name": "\u00dcbereisenbach", "latitude": "50.001666666", "longitude": "6.148333333"}, {"crossing_name": "Zodel", "latitude": "51.236111111", "longitude": "15.011111111"}, {"crossing_name": "Echternacherbr\u00fcck", "latitude": "49.813055555", "longitude": "6.428611111"}, {"crossing_name": "Inzlingen", "latitude": "47.588055555", "longitude": "7.693611111"}, {"crossing_name": "Bad Muskau", "latitude": "51.549722222", "longitude": "14.72"}, {"crossing_name": "Bad Neualbenreuth", "latitude": "49.966666666", "longitude": "12.433333333"}, {"crossing_name": "Emmerich am Rhein", "latitude": "51.835", "longitude": "6.245277777"}, {"crossing_name": "Wallendorf", "latitude": "49.879444444", "longitude": "6.289444444"}, {"crossing_name": "Bayerisch Eisenstein", "latitude": "49.12", "longitude": "13.2"}, {"crossing_name": "Konstanz", "latitude": "47.663333333", "longitude": "9.175277777"}, {"crossing_name": "Deutschneudorf", "latitude": "50.603055555", "longitude": "13.462777777"}, {"crossing_name": "Laufenburg (Baden)", "latitude": "47.565555555", "longitude": "8.064722222"}, {"crossing_name": "Hintersee", "latitude": "53.616666666", "longitude": "14.266666666"}, {"crossing_name": "Minden", "latitude": "49.824722222", "longitude": "6.468333333"}, {"crossing_name": "Wasserbilligerbr\u00fcck", "latitude": "49.71268", "longitude": "6.51005"}, {"crossing_name": "Rheinfelden", "latitude": "47.561111111", "longitude": "7.791666666"}, {"crossing_name": "Berchtesgaden", "latitude": "47.631388888", "longitude": "13.004166666"}, {"crossing_name": "Lottstetten", "latitude": "47.628888888", "longitude": "8.572222222"}, {"crossing_name": "Rhede (Ems)", "latitude": "53.061388888", "longitude": "7.273888888"}, {"crossing_name": "Hohen Neuendorf", "latitude": "52.666666666", "longitude": "13.283055555"}, {"crossing_name": "Gro\u00dfsch\u00f6nau", "latitude": "50.896388888", "longitude": "14.662222222"}, {"crossing_name": "Eggingen", "latitude": "47.696944444", "longitude": "8.396388888"}, {"crossing_name": "Oberwiesenthal", "latitude": "50.419166666", "longitude": "12.970833333"}, {"crossing_name": "J\u00f6hstadt", "latitude": "50.514444444", "longitude": "13.088611111"}, {"crossing_name": "Waidhaus", "latitude": "49.641666666", "longitude": "12.494444444"}, {"crossing_name": "Borkum", "latitude": "53.588055555", "longitude": "6.669722222"}, {"crossing_name": "St\u00fchlingen", "latitude": "47.745277777", "longitude": "8.445833333"}, {"crossing_name": "Albbruck", "latitude": "47.589166666", "longitude": "8.129166666"}, {"crossing_name": "Aventoft", "latitude": "54.883333333", "longitude": "8.816666666"}, {"crossing_name": "Puttgarden", "latitude": "54.5", "longitude": "11.216666666"}], "Andorra": [{"crossing_name": "Andorra la Vella", "latitude": "42.5", "longitude": "1.5"}, {"crossing_name": "El Pas de la Casa", "latitude": "42.543736111", "longitude": "1.733736111"}, {"crossing_name": "Juberri", "latitude": "42.44", "longitude": "1.50666667"}], "San Marino": [{"crossing_name": "Confine", "latitude": "43.90106667", "longitude": "12.41276667"}, {"crossing_name": "Gualdicciolo", "latitude": "43.9508", "longitude": "12.40656667"}, {"crossing_name": "Poggio Casalino", "latitude": "43.921066666", "longitude": "12.410666666"}, {"crossing_name": "Falciano", "latitude": "43.985038888", "longitude": "12.504819444"}, {"crossing_name": "San Marino", "latitude": "43.932011111", "longitude": "12.44845"}, {"crossing_name": "Torraccia", "latitude": "43.95322222", "longitude": "12.50733333"}, {"crossing_name": "Dogana", "latitude": "43.95", "longitude": "12.5"}, {"crossing_name": "Rovereta", "latitude": "43.98936111", "longitude": "12.51286944"}, {"crossing_name": "Ventoso", "latitude": "43.9547", "longitude": "12.4403"}], "Mexico": [{"crossing_name": "Acu\u00f1a", "latitude": "28.708055555", "longitude": "-100.528333333"}, {"crossing_name": "Ciudad Cuauht\u00e9moc", "latitude": "15.664444444", "longitude": "-92.004444444"}, {"crossing_name": "Miguel Alem\u00e1n, Tamaulipas", "latitude": "27.619444444", "longitude": "-99.624444444"}, {"crossing_name": "Reynosa", "latitude": "26.092222222", "longitude": "-98.277777777"}, {"crossing_name": "Ciudad Deportiva", "latitude": "27.4796", "longitude": "-99.5917"}, {"crossing_name": "San Jer\u00f3nimo, Chihuahua", "latitude": "31.782", "longitude": "-106.682"}, {"crossing_name": "Ciudad Ju\u00e1rez", "latitude": "31.739444444", "longitude": "-106.486944444"}, {"crossing_name": "Nuevo Laredo", "latitude": "27.486388888", "longitude": "-99.508055555"}, {"crossing_name": "Tuxtla Chico Municipality", "latitude": "14.933333333", "longitude": "-92.166666666"}, {"crossing_name": "An\u00e1huac Municipality", "latitude": "27.240555555", "longitude": "-100.132222222"}, {"crossing_name": "Nueva Ciudad Guerrero", "latitude": "26.566111111", "longitude": "-99.227222222"}, {"crossing_name": "Chetumal", "latitude": "18.503611111", "longitude": "-88.305277777"}, {"crossing_name": "Suchiate Municipality", "latitude": "14.683333333", "longitude": "-92.15"}, {"crossing_name": "Los Algodones", "latitude": "32.716111111", "longitude": "-114.731944444"}, {"crossing_name": "Chave\u00f1a", "latitude": "31.729361111", "longitude": "-106.4835"}, {"crossing_name": "Agua Prieta", "latitude": "31.327777777", "longitude": "-109.546388888"}, {"crossing_name": "Ciudad Hidalgo, Chiapas", "latitude": "14.679166666", "longitude": "-92.149722222"}, {"crossing_name": "Boy's Town, Nuevo Laredo", "latitude": "27.46527778", "longitude": "-99.52944444"}, {"crossing_name": "Paseo Reforma", "latitude": "27.4445", "longitude": "-99.5195"}, {"crossing_name": "Instituto Tecnol\u00f3gico de Nogales", "latitude": "31.2965", "longitude": "-110.957"}, {"crossing_name": "San Luis R\u00edo Colorado", "latitude": "32.479722222", "longitude": "-114.779722222"}, {"crossing_name": "El Paso\u2013Ju\u00e1rez", "latitude": "31.73944444", "longitude": "-106.48694444"}, {"crossing_name": "Tecate", "latitude": "32.572777777", "longitude": "-116.626666666"}, {"crossing_name": "Anapra", "latitude": "31.77444444", "longitude": "-106.56"}, {"crossing_name": "Anapra", "latitude": "31.7842", "longitude": "-106.563"}, {"crossing_name": "Mexicali", "latitude": "32.663333333", "longitude": "-115.467777777"}, {"crossing_name": "Ciudad Miguel Alem\u00e1n, Tamaulipas", "latitude": "26.400277777", "longitude": "-99.025277777"}, {"crossing_name": "Sonoyta", "latitude": "31.866388888", "longitude": "-112.857222222"}, {"crossing_name": "Ciudad Acu\u00f1a", "latitude": "29.33", "longitude": "-100.978333333"}, {"crossing_name": "Senecu, Mexico", "latitude": "31.70694444", "longitude": "-106.40305556"}, {"crossing_name": "Garita Kil\u00f3metro 26", "latitude": "27.28288611", "longitude": "-99.60824444"}, {"crossing_name": "Gimnasio Multidisciplinario Nuevo Laredo", "latitude": "27.480286", "longitude": "-99.591926"}, {"crossing_name": "La Chinesca", "latitude": "32.66222", "longitude": "-115.49298"}, {"crossing_name": "Heroica Nogales", "latitude": "31.325833333", "longitude": "-110.945833333"}, {"crossing_name": "Matamoros", "latitude": "25.879722222", "longitude": "-97.504166666"}, {"crossing_name": "Subteniente L\u00f3pez", "latitude": "18.495", "longitude": "-88.395"}, {"crossing_name": "Ojinaga Municipality", "latitude": "29.5", "longitude": "-104.516666666"}, {"crossing_name": "Tuxtla Chico Municipality", "latitude": "14.93945", "longitude": "-92.1673"}], "France": [{"crossing_name": "La Cure", "latitude": "46.4649", "longitude": "6.07278"}, {"crossing_name": "Oyster Pond", "latitude": "18.0582808", "longitude": "-63.0149083"}, {"crossing_name": "Longlaville", "latitude": "49.534166666", "longitude": "5.798611111"}, {"crossing_name": "Givet", "latitude": "50.138055555", "longitude": "4.824166666"}, {"crossing_name": "Saint-Laurent-du-Maroni", "latitude": "5.503888888", "longitude": "-54.028888888"}, {"crossing_name": "Gognies-Chauss\u00e9e", "latitude": "50.339722222", "longitude": "3.944444444"}, {"crossing_name": "Aragnouet", "latitude": "42.788888888", "longitude": "0.236111111"}, {"crossing_name": "Tourcoing", "latitude": "50.7225", "longitude": "3.160277777"}, {"crossing_name": "Lucelle", "latitude": "47.42027778", "longitude": "7.24472222"}, {"crossing_name": "L'Hospitalet-pr\u00e8s-l'Andorre", "latitude": "42.590833333", "longitude": "1.803055555"}, {"crossing_name": "Larrau", "latitude": "43.018611111", "longitude": "-0.955833333"}, {"crossing_name": "Roquebrune-Cap-Martin", "latitude": "43.757222222", "longitude": "7.474166666"}, {"crossing_name": "Tende", "latitude": "44.087777777", "longitude": "7.593611111"}, {"crossing_name": "Saint-Louis", "latitude": "47.585277777", "longitude": "7.565"}, {"crossing_name": "Coquelles", "latitude": "50.935", "longitude": "1.799166666"}, {"crossing_name": "Ferney-Voltaire", "latitude": "46.255833333", "longitude": "6.108055555"}, {"crossing_name": "Ohain", "latitude": "50.040555555", "longitude": "4.118611111"}, {"crossing_name": "Beausoleil", "latitude": "43.741944444", "longitude": "7.423611111"}, {"crossing_name": "Castellar", "latitude": "43.803611111", "longitude": "7.496666666"}, {"crossing_name": "Mont-Saint-Martin", "latitude": "49.540555555", "longitude": "5.779444444"}, {"crossing_name": "Vieux-Reng", "latitude": "50.329166666", "longitude": "4.046944444"}, {"crossing_name": "Bourg-Madame", "latitude": "42.434166666", "longitude": "1.943888888"}, {"crossing_name": "Sospel", "latitude": "43.876944444", "longitude": "7.448333333"}, {"crossing_name": "Cap-d\u2019Ail", "latitude": "43.721111111", "longitude": "7.405555555"}, {"crossing_name": "La Turbie", "latitude": "43.745555555", "longitude": "7.400833333"}, {"crossing_name": "Toufflers", "latitude": "50.660833333", "longitude": "3.229722222"}, {"crossing_name": "Strasbourg", "latitude": "48.573333333", "longitude": "7.752222222"}, {"crossing_name": "Cerb\u00e8re", "latitude": "42.443333333", "longitude": "3.164722222"}, {"crossing_name": "Saint-Gingolph", "latitude": "46.392222222", "longitude": "6.801944444"}, {"crossing_name": "Scheibenhard", "latitude": "48.978888888", "longitude": "8.136944444"}, {"crossing_name": "Wervicq-Sud", "latitude": "50.772222222", "longitude": "3.047777777"}, {"crossing_name": "Saint-Gingolph", "latitude": "46.393409", "longitude": "6.804338"}, {"crossing_name": "La Br\u00e8che de Roland", "latitude": "42.69083333", "longitude": "-0.03361111"}, {"crossing_name": "La Brigue", "latitude": "44.0625", "longitude": "7.616388888"}, {"crossing_name": "Breil-sur-Roya", "latitude": "43.937222222", "longitude": "7.514444444"}, {"crossing_name": "Qui\u00e9vrechain", "latitude": "50.395277777", "longitude": "3.666944444"}, {"crossing_name": "Warneton", "latitude": "50.747222222", "longitude": "2.9525"}, {"crossing_name": "Saint-Georges", "latitude": "3.889444444", "longitude": "-51.801111111"}, {"crossing_name": "Bray-Dunes", "latitude": "51.071111111", "longitude": "2.5275"}, {"crossing_name": "Delle", "latitude": "47.506944444", "longitude": "6.998055555"}, {"crossing_name": "Le Perthus", "latitude": "42.464166666", "longitude": "2.862777777"}, {"crossing_name": "Calais", "latitude": "50.9475", "longitude": "1.855555555"}, {"crossing_name": "Sarreguemines", "latitude": "49.110555555", "longitude": "7.067222222"}, {"crossing_name": "Leers", "latitude": "50.681666666", "longitude": "3.243888888"}, {"crossing_name": "Mondorff", "latitude": "49.503333333", "longitude": "6.271111111"}, {"crossing_name": "Saint-James", "latitude": "18.06", "longitude": "-63.086"}, {"crossing_name": "Jeumont", "latitude": "50.294444444", "longitude": "4.101388888"}, {"crossing_name": "Lauterbourg", "latitude": "48.975277777", "longitude": "8.173888888"}, {"crossing_name": "Hendaye", "latitude": "43.358611111", "longitude": "-1.774444444"}, {"crossing_name": "Wissembourg", "latitude": "49.0375", "longitude": "7.946111111"}, {"crossing_name": "Petite-Rosselle", "latitude": "49.211666666", "longitude": "6.8575"}, {"crossing_name": "Challex", "latitude": "46.181388888", "longitude": "5.975833333"}, {"crossing_name": "Menton", "latitude": "43.774722222", "longitude": "7.499722222"}, {"crossing_name": "Lanslebourg-Mont-Cenis", "latitude": "45.285833333", "longitude": "6.879166666"}, {"crossing_name": "Comines", "latitude": "50.761111111", "longitude": "3.007777777"}, {"crossing_name": "Huningue", "latitude": "47.591388888", "longitude": "7.583055555"}, {"crossing_name": "Chalamp\u00e9", "latitude": "47.820555555", "longitude": "7.541111111"}, {"crossing_name": "Sainte-Engr\u00e2ce", "latitude": "43.014166666", "longitude": "-0.854166666"}, {"crossing_name": "Dunkirk", "latitude": "51.037777777", "longitude": "2.376388888"}, {"crossing_name": "Wattrelos", "latitude": "50.701111111", "longitude": "3.213333333"}, {"crossing_name": "Chamonix-Mont-Blanc", "latitude": "45.922222222", "longitude": "6.868888888"}, {"crossing_name": "Urdos", "latitude": "42.873055555", "longitude": "-0.555"}], "United Kingdom": [{"crossing_name": "Jonesborough", "latitude": "54.083", "longitude": "-6.45"}, {"crossing_name": "Belcoo", "latitude": "54.296", "longitude": "-7.871"}, {"crossing_name": "Derry", "latitude": "54.991666666", "longitude": "-7.341666666"}, {"crossing_name": "Strabane", "latitude": "54.83", "longitude": "-7.47"}, {"crossing_name": "Cullaville", "latitude": "54.0773", "longitude": "-6.6088"}, {"crossing_name": "Teemore", "latitude": "54.155", "longitude": "-7.529"}, {"crossing_name": "Gibraltar", "latitude": "36.13775", "longitude": "-5.345361111"}, {"crossing_name": "Rosslea", "latitude": "54.2393", "longitude": "-7.174"}, {"crossing_name": "Aughnacloy, County Tyrone", "latitude": "54.4135", "longitude": "-6.97477"}, {"crossing_name": "Middletown", "latitude": "54.2927", "longitude": "-6.84388"}, {"crossing_name": "Tullyhommon", "latitude": "54.5536", "longitude": "-7.81772"}, {"crossing_name": "Belleek, County Fermanagh", "latitude": "54.4821", "longitude": "-8.0866"}, {"crossing_name": "Pettigo", "latitude": "54.549293", "longitude": "-7.831235"}, {"crossing_name": "Pettigo", "latitude": "54.549", "longitude": "-7.831"}], "South Africa": [{"crossing_name": "Onseepkans", "latitude": "-28.799", "longitude": "19.3167"}, {"crossing_name": "Skilpadshek", "latitude": "-25.2758", "longitude": "25.7142"}, {"crossing_name": "Oshoek", "latitude": "-26.212777777", "longitude": "30.988611111"}, {"crossing_name": "Vioolsdrif", "latitude": "-28.775", "longitude": "17.625"}, {"crossing_name": "Clocolan", "latitude": "-28.9", "longitude": "27.566666666"}, {"crossing_name": "Golela", "latitude": "-27.3183", "longitude": "31.8913"}, {"crossing_name": "Nakop", "latitude": "-28.09194444", "longitude": "20.01"}, {"crossing_name": "Komatipoort", "latitude": "-25.433333333", "longitude": "31.95"}, {"crossing_name": "Alexander Bay, Northern Cape", "latitude": "-28.67094", "longitude": "16.51007"}, {"crossing_name": "Alexander Bay, Northern Cape", "latitude": "-28.5953", "longitude": "16.484813888"}, {"crossing_name": "Nerston", "latitude": "-26.583333333", "longitude": "30.783333333"}, {"crossing_name": "Josefsdal", "latitude": "-25.9434", "longitude": "31.1183"}, {"crossing_name": "Ramatlabama", "latitude": "-25.649444444", "longitude": "25.575"}, {"crossing_name": "Pontdrif", "latitude": "-22.21697", "longitude": "29.13966"}, {"crossing_name": "Ficksburg", "latitude": "-28.873694444", "longitude": "27.878111111"}, {"crossing_name": "Groblersbrug", "latitude": "-22.998711111", "longitude": "27.94375"}, {"crossing_name": "Mananga", "latitude": "-25.9331", "longitude": "31.7613"}, {"crossing_name": "Stockpoort", "latitude": "-23.4023", "longitude": "27.3527"}, {"crossing_name": "Van Rooyen's Gate", "latitude": "-29.7563", "longitude": "27.10834"}, {"crossing_name": "Waverley, Mpumalanga", "latitude": "-26.3275", "longitude": "30.8885"}], "Ivory Coast": [{"crossing_name": "Diamakani", "latitude": "10.56666667", "longitude": "-6.53333333"}, {"crossing_name": "Kalamon, Ivory Coast", "latitude": "9.816666666", "longitude": "-3.166666666"}, {"crossing_name": "Niokosso", "latitude": "8.683333333", "longitude": "-7.666666666"}, {"crossing_name": "Papara", "latitude": "10.61666667", "longitude": "-6.25"}, {"crossing_name": "Toumoukoro", "latitude": "10.38333333", "longitude": "-5.75"}, {"crossing_name": "Mahandougou", "latitude": "9.03333333", "longitude": "-7.83333333"}, {"crossing_name": "Pogo", "latitude": "10.437868", "longitude": "-5.632566"}, {"crossing_name": "Sokoro", "latitude": "10.20277778", "longitude": "-7.83333333"}, {"crossing_name": "Sipilou", "latitude": "7.86666667", "longitude": "-8.1"}, {"crossing_name": "Sirana", "latitude": "9.416666666", "longitude": "-7.85"}, {"crossing_name": "No\u00e9", "latitude": "5.28333333", "longitude": "-2.8"}, {"crossing_name": "D\u00e9b\u00e9t\u00e9", "latitude": "10.616666666", "longitude": "-6.65"}, {"crossing_name": "Bin-Houy\u00e9", "latitude": "6.7825", "longitude": "-8.31631"}, {"crossing_name": "Gb\u00e9l\u00e9ban", "latitude": "9.583333333", "longitude": "-8.133333333"}], "Monaco": [{"crossing_name": "Saint Michel", "latitude": "43.7405", "longitude": "7.4237"}, {"crossing_name": "Monaco", "latitude": "43.733333333", "longitude": "7.416666666"}, {"crossing_name": "La Rousse", "latitude": "43.750833333", "longitude": "7.435833333"}, {"crossing_name": "La Colle", "latitude": "43.733111", "longitude": "7.413959"}, {"crossing_name": "Larvotto", "latitude": "43.746777777", "longitude": "7.433333333"}, {"crossing_name": "Monte Carlo", "latitude": "43.738942", "longitude": "7.425237"}, {"crossing_name": "Moneghetti", "latitude": "43.736057", "longitude": "7.417822"}, {"crossing_name": "Les R\u00e9voires", "latitude": "43.7325", "longitude": "7.413888888"}, {"crossing_name": "Fontvieille", "latitude": "43.727696", "longitude": "7.418157"}], "Malaysia": [{"crossing_name": "Durian Burung", "latitude": "6.4688", "longitude": "100.70912"}, {"crossing_name": "Pengkalan Kubur", "latitude": "6.232983333", "longitude": "102.090944444"}, {"crossing_name": "Johor Bahru", "latitude": "1.455555555", "longitude": "103.761111111"}, {"crossing_name": "Padang Besar", "latitude": "6.66055556", "longitude": "100.32166667"}, {"crossing_name": "Kroh", "latitude": "5.71666667", "longitude": "101.0"}, {"crossing_name": "Pengkalan Hulu", "latitude": "5.716666666", "longitude": "101.0"}, {"crossing_name": "Tebedu", "latitude": "1.016669444", "longitude": "110.366669444"}, {"crossing_name": "Wang Kelian", "latitude": "6.678888888", "longitude": "100.186527777"}, {"crossing_name": "Biawak", "latitude": "1.61667", "longitude": "109.7"}, {"crossing_name": "Rantau Panjang", "latitude": "6.022538888", "longitude": "101.969180555"}, {"crossing_name": "Bukit Kayu Hitam", "latitude": "6.5", "longitude": "100.41666667"}, {"crossing_name": "Kuah", "latitude": "6.32", "longitude": "99.85"}, {"crossing_name": "Lawas", "latitude": "4.833333333", "longitude": "115.4"}, {"crossing_name": "Limbang District", "latitude": "4.25", "longitude": "115.16667"}, {"crossing_name": "Limbang", "latitude": "4.759166666", "longitude": "115.006666666"}, {"crossing_name": "Lubok Antu", "latitude": "1.05", "longitude": "111.833333333"}, {"crossing_name": "Bukit Bunga", "latitude": "5.837647222", "longitude": "101.902913888"}], "Thailand": [{"crossing_name": "Piang Luang", "latitude": "19.6493", "longitude": "98.6352"}, {"crossing_name": "Betong", "latitude": "5.77305556", "longitude": "101.0725"}, {"crossing_name": "Mukdahan", "latitude": "16.543055555", "longitude": "104.722777777"}, {"crossing_name": "Nong Khai", "latitude": "17.884166666", "longitude": "102.746666666"}, {"crossing_name": "Ranong", "latitude": "9.961944444", "longitude": "98.638888888"}, {"crossing_name": "Satun", "latitude": "6.614722222", "longitude": "100.068055555"}, {"crossing_name": "Khlong Yai", "latitude": "11.7763", "longitude": "102.88575"}, {"crossing_name": "Padang Besar", "latitude": "6.66644444", "longitude": "100.32361111"}, {"crossing_name": "Buke Ta", "latitude": "5.848732", "longitude": "101.880553"}, {"crossing_name": "Wiang Chiang Khong", "latitude": "20.2588", "longitude": "100.4081"}, {"crossing_name": "Nakhon Phanom", "latitude": "17.406944444", "longitude": "104.780833333"}, {"crossing_name": "Mae Sot", "latitude": "16.710091", "longitude": "98.570709"}, {"crossing_name": "Mae Sai", "latitude": "20.4266", "longitude": "99.8841"}, {"crossing_name": "Su-ngai Kolok", "latitude": "6.0297", "longitude": "101.9668"}, {"crossing_name": "Tak Bai", "latitude": "6.25917", "longitude": "102.053"}], "Croatia": [{"crossing_name": "Rupa, Matulji", "latitude": "45.478", "longitude": "14.286"}, {"crossing_name": "Svilaj", "latitude": "45.124", "longitude": "18.298"}, {"crossing_name": "\u017dupanja", "latitude": "45.066666666", "longitude": "18.7"}, {"crossing_name": "Gola, Koprivnica-Kri\u017eevci County", "latitude": "46.2", "longitude": "17.05"}, {"crossing_name": "Ba\u0107in", "latitude": "45.2108", "longitude": "16.75"}, {"crossing_name": "Gunja", "latitude": "44.896666666", "longitude": "18.85"}, {"crossing_name": "Brod na Kupi", "latitude": "45.463055555", "longitude": "14.853611111"}, {"crossing_name": "Drnje", "latitude": "46.205", "longitude": "16.908055555"}, {"crossing_name": "Slavonski \u0160amac", "latitude": "45.066666666", "longitude": "18.483333333"}, {"crossing_name": "Davor", "latitude": "45.116666666", "longitude": "17.516666666"}, {"crossing_name": "Bregana", "latitude": "45.838333333", "longitude": "15.688055555"}, {"crossing_name": "Dvor", "latitude": "45.068888888", "longitude": "16.376388888"}, {"crossing_name": "Cetingrad", "latitude": "45.160611111", "longitude": "15.736688888"}, {"crossing_name": "Erdut", "latitude": "45.533333333", "longitude": "19.066666666"}, {"crossing_name": "Donji Miholjac", "latitude": "45.75", "longitude": "18.15"}, {"crossing_name": "Metkovi\u0107", "latitude": "43.05", "longitude": "17.65"}, {"crossing_name": "Gori\u010dan", "latitude": "46.383333333", "longitude": "16.683333333"}, {"crossing_name": "Slavonski Brod", "latitude": "45.155277777", "longitude": "18.014444444"}, {"crossing_name": "Lipovac, Nijemci", "latitude": "45.055924", "longitude": "19.072157"}, {"crossing_name": "U\u017eljebi\u0107", "latitude": "44.713897", "longitude": "15.92798"}, {"crossing_name": "Ilok", "latitude": "45.2225", "longitude": "19.372777777"}, {"crossing_name": "Tovarnik", "latitude": "45.166666666", "longitude": "19.15"}, {"crossing_name": "Plovanija", "latitude": "45.45", "longitude": "13.636"}, {"crossing_name": "Jasenovac, Sisak-Moslavina County", "latitude": "45.266666666", "longitude": "16.916666666"}, {"crossing_name": "Stara Gradi\u0161ka", "latitude": "45.15", "longitude": "17.25"}, {"crossing_name": "Hrvatska Dubica", "latitude": "45.1897", "longitude": "16.7986"}, {"crossing_name": "Hrvatska Dubica", "latitude": "45.189272222", "longitude": "16.798527777"}, {"crossing_name": "Macelj", "latitude": "46.26666667", "longitude": "15.85"}, {"crossing_name": "Slabinja", "latitude": "45.20472222", "longitude": "16.69861111"}, {"crossing_name": "Brod Moravice", "latitude": "45.46", "longitude": "14.97"}, {"crossing_name": "Hrvatska Kostajnica", "latitude": "45.233333333", "longitude": "16.533333333"}, {"crossing_name": "Pasjak, Matulji", "latitude": "45.48333333", "longitude": "14.23333333"}], "Uganda": [{"crossing_name": "Oraba", "latitude": "3.535", "longitude": "30.89"}, {"crossing_name": "Ishasha, Uganda", "latitude": "-0.74", "longitude": "29.625"}, {"crossing_name": "Lwakhakha, Uganda", "latitude": "0.8", "longitude": "34.37944444"}, {"crossing_name": "Katuna", "latitude": "-1.43", "longitude": "30.0175"}, {"crossing_name": "Goli, Uganda", "latitude": "2.38666667", "longitude": "31.03"}, {"crossing_name": "Mirama Hills", "latitude": "-1.055", "longitude": "30.455"}, {"crossing_name": "Mutukula, Uganda", "latitude": "-1.0", "longitude": "31.41666667"}, {"crossing_name": "Malaba, Uganda", "latitude": "0.64444444", "longitude": "34.26055556"}, {"crossing_name": "Bunagana, Uganda", "latitude": "-1.3", "longitude": "29.6"}, {"crossing_name": "Lokitanyala", "latitude": "2.36472222", "longitude": "34.92027778"}, {"crossing_name": "Kyanika", "latitude": "-1.33888889", "longitude": "29.73888889"}, {"crossing_name": "Suam, Uganda", "latitude": "1.21722222", "longitude": "34.73222222"}, {"crossing_name": "Busengo, Uganda", "latitude": "-1.161944", "longitude": "29.584167"}, {"crossing_name": "Paidha", "latitude": "2.416944", "longitude": "30.985556"}, {"crossing_name": "Kikagati", "latitude": "-1.045", "longitude": "30.66861111"}, {"crossing_name": "Elegu", "latitude": "3.56638889", "longitude": "32.07055556"}, {"crossing_name": "Afoji", "latitude": "3.70361111", "longitude": "31.67666667"}, {"crossing_name": "Busia", "latitude": "0.466944444", "longitude": "34.09"}, {"crossing_name": "Mpondwe", "latitude": "0.032959", "longitude": "29.7602463"}, {"crossing_name": "Musingo", "latitude": "3.77138889", "longitude": "33.19972222"}, {"crossing_name": "Vurra", "latitude": "2.88638889", "longitude": "30.87944444"}, {"crossing_name": "Bujerere", "latitude": "0.6313889", "longitude": "29.95916748"}], "Bulgaria": [{"crossing_name": "Gyueshevo", "latitude": "42.23877", "longitude": "22.475813"}, {"crossing_name": "Vidin", "latitude": "43.98869", "longitude": "22.874058"}, {"crossing_name": "Svishtov", "latitude": "43.611301", "longitude": "25.356901"}, {"crossing_name": "Nikopol", "latitude": "43.698571", "longitude": "24.892409"}, {"crossing_name": "Oryahovo", "latitude": "43.738869", "longitude": "23.961178"}, {"crossing_name": "Tutrakan", "latitude": "44.039", "longitude": "26.619388"}, {"crossing_name": "Strezimirovci", "latitude": "42.799231", "longitude": "22.451676"}, {"crossing_name": "Kalotina", "latitude": "42.993902", "longitude": "22.867756"}, {"crossing_name": "Kapitan Andreevo", "latitude": "41.720692", "longitude": "26.321553"}, {"crossing_name": "Ivaylovgrad", "latitude": "41.527122", "longitude": "26.124134"}, {"crossing_name": "Kulata", "latitude": "41.38882", "longitude": "23.363394"}, {"crossing_name": "Svilengrad", "latitude": "41.765243", "longitude": "26.202976"}, {"crossing_name": "Petrich", "latitude": "41.398129", "longitude": "23.206857"}, {"crossing_name": "Durankulak", "latitude": "43.692929", "longitude": "28.526237"}, {"crossing_name": "Petrich", "latitude": "41.395277777", "longitude": "23.206944444"}, {"crossing_name": "Silistra", "latitude": "44.109238", "longitude": "27.265381"}, {"crossing_name": "Ruse", "latitude": "43.844532", "longitude": "25.953907"}, {"crossing_name": "Malko Tarnovo", "latitude": "41.980595", "longitude": "27.524269"}, {"crossing_name": "Zlatograd", "latitude": "41.380482", "longitude": "25.094713"}, {"crossing_name": "Kardam", "latitude": "43.75387", "longitude": "28.107591"}, {"crossing_name": "Petrova Niva", "latitude": "42.063055555", "longitude": "27.528333333"}, {"crossing_name": "Bregovo", "latitude": "44.151284", "longitude": "22.639277"}, {"crossing_name": "Hadzhidimovo", "latitude": "41.515506", "longitude": "23.852604"}], "Liechtenstein": [{"crossing_name": "Gamprin", "latitude": "47.21986", "longitude": "9.50995"}, {"crossing_name": "Ruggell", "latitude": "47.24502", "longitude": "9.53323"}, {"crossing_name": "Mauren", "latitude": "47.219722222", "longitude": "9.542777777"}, {"crossing_name": "Schaan", "latitude": "47.166666666", "longitude": "9.516666666"}, {"crossing_name": "Balzers", "latitude": "47.066666666", "longitude": "9.5"}, {"crossing_name": "M\u00e4ls", "latitude": "47.061497222", "longitude": "9.493819444"}, {"crossing_name": "Schellenberg", "latitude": "47.22833", "longitude": "9.53951"}, {"crossing_name": "Vaduz", "latitude": "47.139722222", "longitude": "9.521944444"}, {"crossing_name": "Hinterschellenberg", "latitude": "47.233333333", "longitude": "9.533333333"}, {"crossing_name": "Bendern", "latitude": "47.211111111", "longitude": "9.5075"}, {"crossing_name": "M\u00fchleholz", "latitude": "47.155277777", "longitude": "9.509444444"}, {"crossing_name": "Schaanwald", "latitude": "47.216666666", "longitude": "9.566666666"}], "Ukraine": [{"crossing_name": "Uzhhorod", "latitude": "48.623888888", "longitude": "22.295"}, {"crossing_name": "Vilcha", "latitude": "51.425", "longitude": "29.43"}, {"crossing_name": "Milove", "latitude": "49.381083333", "longitude": "40.125722222"}, {"crossing_name": "Voznesenivka", "latitude": "48.073055555", "longitude": "39.797222222"}, {"crossing_name": "Mamalyha", "latitude": "48.255555555", "longitude": "26.5875"}, {"crossing_name": "Krasna Talivka", "latitude": "48.847222222", "longitude": "39.834444444"}, {"crossing_name": "Kiliia", "latitude": "45.45028", "longitude": "29.2667"}, {"crossing_name": "Kalanchak", "latitude": "46.258055555", "longitude": "33.28425"}, {"crossing_name": "Rava-Ruska", "latitude": "50.25", "longitude": "23.616666666"}, {"crossing_name": "Novoazovsk", "latitude": "47.116666666", "longitude": "38.083333333"}, {"crossing_name": "Mohyliv-Podilskyi", "latitude": "48.45", "longitude": "27.783333333"}, {"crossing_name": "Solotvyno", "latitude": "47.959722222", "longitude": "23.866944444"}, {"crossing_name": "Vylkove", "latitude": "45.399166666", "longitude": "29.593611111"}, {"crossing_name": "Vovchansk", "latitude": "50.288055555", "longitude": "36.946111111"}, {"crossing_name": "Chonhar", "latitude": "46.030833333", "longitude": "34.545833333"}, {"crossing_name": "Chaplynka", "latitude": "46.362875", "longitude": "33.530202777"}], "Afghanistan": [{"crossing_name": "Towraghondi", "latitude": "35.25", "longitude": "62.2833"}, {"crossing_name": "Hairatan", "latitude": "37.2169", "longitude": "67.4169"}, {"crossing_name": "Zaranj", "latitude": "30.96", "longitude": "61.86"}, {"crossing_name": "Ghulam Khan", "latitude": "34.13333333", "longitude": "70.04583333"}, {"crossing_name": "Torkham", "latitude": "34.114722222", "longitude": "71.084722222"}, {"crossing_name": "Murichaq", "latitude": "35.824444444", "longitude": "63.132777777"}, {"crossing_name": "Murichaq", "latitude": "35.810833333", "longitude": "63.145"}, {"crossing_name": "Aqina", "latitude": "37.22861111", "longitude": "65.26305556"}, {"crossing_name": "Islam Qala", "latitude": "34.666667", "longitude": "61.066667"}, {"crossing_name": "Angoor Ada", "latitude": "32.515555555", "longitude": "69.2825"}, {"crossing_name": "Spin Boldak", "latitude": "31.008055555", "longitude": "66.398055555"}, {"crossing_name": "Ishkashim", "latitude": "36.709166666", "longitude": "71.573888888"}], "Malawi": [{"crossing_name": "Mchinji", "latitude": "-13.816666666", "longitude": "32.9"}, {"crossing_name": "Chitipa", "latitude": "-9.701944444", "longitude": "33.27"}, {"crossing_name": "Chitipa", "latitude": "-9.70237", "longitude": "33.26969"}, {"crossing_name": "Mulanje", "latitude": "-16.03163", "longitude": "35.5"}, {"crossing_name": "Mulanje", "latitude": "-16.033333", "longitude": "35.5"}], "Nepal": [{"crossing_name": "Koilabas", "latitude": "27.697222222", "longitude": "82.526111111"}, {"crossing_name": "Hilsa", "latitude": "30.1519", "longitude": "81.3342"}, {"crossing_name": "Biratnagar", "latitude": "26.483333333", "longitude": "87.283333333"}, {"crossing_name": "Khalanga", "latitude": "29.83", "longitude": "80.55"}, {"crossing_name": "Malangawa", "latitude": "26.866666666", "longitude": "85.566666666"}, {"crossing_name": "Gulariya", "latitude": "28.205555555", "longitude": "81.347222222"}, {"crossing_name": "Mechinagar Municipality", "latitude": "26.64638889", "longitude": "88.14944444"}, {"crossing_name": "Kapilvastu Municipality", "latitude": "27.543888888", "longitude": "83.052777777"}, {"crossing_name": "Siraha", "latitude": "26.65277778", "longitude": "86.20694444"}, {"crossing_name": "Birgunj", "latitude": "27.0", "longitude": "84.866666666"}, {"crossing_name": "Rajbiraj", "latitude": "26.53944444", "longitude": "86.74833333"}, {"crossing_name": "Bhadrapur", "latitude": "26.541944444", "longitude": "88.094444444"}, {"crossing_name": "Mahakali, Mahakali Zone", "latitude": "29.38897", "longitude": "80.29509"}, {"crossing_name": "Mahakali, Mahakali Zone", "latitude": "29.39", "longitude": "80.3"}, {"crossing_name": "Krishnanagar, Nepal", "latitude": "27.502", "longitude": "82.793"}, {"crossing_name": "Lomanthang Rural Municipality", "latitude": "29.186111111", "longitude": "83.963888888"}, {"crossing_name": "Pashupatinagar, Mechi", "latitude": "26.933333333", "longitude": "88.133333333"}, {"crossing_name": "Pashupatinagar, Mechi", "latitude": "26.943111111", "longitude": "88.114388888"}, {"crossing_name": "Kakarbhitta", "latitude": "26.645730555", "longitude": "88.157569444"}, {"crossing_name": "Nepalgunj", "latitude": "28.05", "longitude": "81.616666666"}, {"crossing_name": "Jaleshwar", "latitude": "26.65", "longitude": "85.8"}, {"crossing_name": "Kimathanka", "latitude": "27.856944444", "longitude": "87.418055555"}, {"crossing_name": "Bhimdatta", "latitude": "28.916666666", "longitude": "80.333333333"}, {"crossing_name": "Siddharthanagar", "latitude": "27.5", "longitude": "83.45"}, {"crossing_name": "Dhangadhi", "latitude": "28.705555555", "longitude": "80.575"}, {"crossing_name": "Gaur, Nepal", "latitude": "26.764444444", "longitude": "85.278333333"}, {"crossing_name": "Gadhimai Municipality, Nepal", "latitude": "26.93972222", "longitude": "85.36777778"}], "Oman": [{"crossing_name": "Al Wajajah", "latitude": "24.7966", "longitude": "56.2262"}, {"crossing_name": "Mahdah", "latitude": "24.40329", "longitude": "55.963234"}, {"crossing_name": "Sarfait", "latitude": "16.682573055", "longitude": "53.115756944"}, {"crossing_name": "Al-Mazyunah", "latitude": "17.84861111", "longitude": "52.62"}, {"crossing_name": "Ramlat Khaliya", "latitude": "22.28027778", "longitude": "55.48916667"}, {"crossing_name": "Madha", "latitude": "25.284444444", "longitude": "56.333055555"}], "Romania": [{"crossing_name": "R\u0103d\u0103u\u021bi-Prut", "latitude": "48.207785", "longitude": "26.819981"}, {"crossing_name": "Giurgiu", "latitude": "43.9", "longitude": "25.966666666"}, {"crossing_name": "Vladimirescu", "latitude": "46.167353", "longitude": "21.46156"}, {"crossing_name": "Negru Vod\u0103", "latitude": "43.81805556", "longitude": "28.2125"}, {"crossing_name": "Sighetu Marma\u021biei", "latitude": "47.930944444", "longitude": "23.894694444"}, {"crossing_name": "Gala\u021bi", "latitude": "45.423333333", "longitude": "28.0425"}, {"crossing_name": "Siret", "latitude": "47.95", "longitude": "26.06"}, {"crossing_name": "C\u00e2mpulung la Tisa", "latitude": "47.972423", "longitude": "23.765658"}, {"crossing_name": "Jamu Mare", "latitude": "45.257127", "longitude": "21.455224"}, {"crossing_name": "Zimnicea", "latitude": "43.653888888", "longitude": "25.365"}, {"crossing_name": "Beba Veche", "latitude": "46.129166666", "longitude": "20.299444444"}, {"crossing_name": "Bor\u0219", "latitude": "47.11694444", "longitude": "21.80222222"}, {"crossing_name": "Bechet", "latitude": "43.780330555", "longitude": "23.9568"}, {"crossing_name": "Moldova Nou\u0103", "latitude": "44.734722222", "longitude": "21.666388888"}, {"crossing_name": "\u0218tef\u0103ne\u0219ti", "latitude": "47.792222222", "longitude": "27.201111111"}, {"crossing_name": "Ostrov", "latitude": "44.101973", "longitude": "27.40168"}, {"crossing_name": "Urziceni", "latitude": "47.721657", "longitude": "22.392507"}, {"crossing_name": "F\u0103lciu", "latitude": "46.309472", "longitude": "28.08494"}, {"crossing_name": "Salonta", "latitude": "46.8", "longitude": "21.65"}, {"crossing_name": "Turnu M\u0103gurele", "latitude": "43.751666666", "longitude": "24.870833333"}, {"crossing_name": "Desa", "latitude": "43.842276", "longitude": "23.019494"}, {"crossing_name": "Chilia Veche", "latitude": "45.339451", "longitude": "29.293722"}, {"crossing_name": "Poiana Mare", "latitude": "43.912651", "longitude": "23.093976"}, {"crossing_name": "Cetate", "latitude": "44.1173752", "longitude": "23.0351525"}, {"crossing_name": "Victoria", "latitude": "47.285991", "longitude": "27.597631"}, {"crossing_name": "Pilu", "latitude": "46.587", "longitude": "21.37038"}, {"crossing_name": "Pecica", "latitude": "46.17", "longitude": "21.07"}, {"crossing_name": "Tulcea", "latitude": "45.19", "longitude": "28.8"}, {"crossing_name": "Dorol\u021b", "latitude": "47.842271", "longitude": "22.787897"}, {"crossing_name": "Petea", "latitude": "47.851618", "longitude": "22.786821"}, {"crossing_name": "Medgidia", "latitude": "44.250277777", "longitude": "28.261388888"}, {"crossing_name": "Pojejena", "latitude": "44.8058892", "longitude": "21.5647359"}, {"crossing_name": "Valea lui Mihai", "latitude": "47.52", "longitude": "22.13"}, {"crossing_name": "S\u0103cueni", "latitude": "47.3525", "longitude": "22.0914"}, {"crossing_name": "Cenad", "latitude": "46.1375", "longitude": "20.586666666"}, {"crossing_name": "Ungheni", "latitude": "47.2", "longitude": "27.783333333"}, {"crossing_name": "Vama Veche", "latitude": "43.752222", "longitude": "28.571111"}, {"crossing_name": "Comlo\u0219u Mare", "latitude": "45.884956", "longitude": "20.652279"}, {"crossing_name": "Jimbolia", "latitude": "45.791666666", "longitude": "20.722222222"}, {"crossing_name": "Oancea", "latitude": "45.908119", "longitude": "28.078176"}, {"crossing_name": "N\u0103dlac", "latitude": "46.166666666", "longitude": "20.75"}, {"crossing_name": "Curtici", "latitude": "46.341944444", "longitude": "21.306111111"}, {"crossing_name": "Or\u0219ova", "latitude": "44.725277777", "longitude": "22.396111111"}, {"crossing_name": "Corabia", "latitude": "43.773611111", "longitude": "24.503333333"}, {"crossing_name": "Oradea", "latitude": "47.072222222", "longitude": "21.921111111"}, {"crossing_name": "C\u0103l\u0103ra\u0219i", "latitude": "44.2", "longitude": "27.333333333"}, {"crossing_name": "Drobeta-Turnu Severin", "latitude": "44.636111111", "longitude": "22.655555555"}, {"crossing_name": "Mu\u0219eni\u021ba", "latitude": "47.947572", "longitude": "25.975795"}, {"crossing_name": "Dr\u00e2nceni", "latitude": "46.770312", "longitude": "28.117143"}, {"crossing_name": "Olteni\u021ba", "latitude": "44.086388888", "longitude": "26.636388888"}, {"crossing_name": "Calafat", "latitude": "43.985833333", "longitude": "22.9575"}, {"crossing_name": "Carei", "latitude": "47.69", "longitude": "22.47"}, {"crossing_name": "Naid\u0103\u0219", "latitude": "44.872197", "longitude": "21.573716"}, {"crossing_name": "Lipni\u021ba", "latitude": "44.063024", "longitude": "27.551543"}, {"crossing_name": "Moravi\u021ba", "latitude": "45.280796", "longitude": "21.284092"}], "Estonia": [{"crossing_name": "Rammuka", "latitude": "57.564444444", "longitude": "27.2225"}, {"crossing_name": "Narva", "latitude": "59.379166666", "longitude": "28.200555555"}, {"crossing_name": "Valga", "latitude": "57.776944444", "longitude": "26.031111111"}, {"crossing_name": "Luhamaa", "latitude": "57.641111111", "longitude": "27.368611111"}, {"crossing_name": "Ikla", "latitude": "57.876944444", "longitude": "24.362222222"}, {"crossing_name": "Kilomani", "latitude": "57.610833333", "longitude": "27.022777777"}, {"crossing_name": "Laatre", "latitude": "58.006388888", "longitude": "25.281666666"}, {"crossing_name": "Andsum\u00e4e", "latitude": "57.596388888", "longitude": "27.075833333"}, {"crossing_name": "Vastse-Roosa", "latitude": "57.5725", "longitude": "26.665"}, {"crossing_name": "M\u00f5isak\u00fcla", "latitude": "58.090277777", "longitude": "25.183055555"}, {"crossing_name": "J\u00e4\u00e4rja", "latitude": "58.043888888", "longitude": "25.016388888"}, {"crossing_name": "Koidula", "latitude": "57.838333333", "longitude": "27.594444444"}, {"crossing_name": "Tsirgum\u00e4e", "latitude": "57.609722222", "longitude": "26.331388888"}, {"crossing_name": "Murati", "latitude": "57.589722222", "longitude": "27.086388888"}], "Serbia": [{"crossing_name": "Nakovo", "latitude": "45.873888888", "longitude": "20.567222222"}, {"crossing_name": "Dimitrovgrad", "latitude": "43.016666666", "longitude": "22.783333333"}, {"crossing_name": "Negotin", "latitude": "44.216666666", "longitude": "22.516666666"}, {"crossing_name": "Pre\u0161evo", "latitude": "42.306666666", "longitude": "21.65"}, {"crossing_name": "Strezimirovci", "latitude": "42.799231", "longitude": "22.451676"}, {"crossing_name": "Veliki Gaj", "latitude": "45.284722222", "longitude": "21.170277777"}, {"crossing_name": "Kalu\u0111erovo", "latitude": "44.900277777", "longitude": "21.551388888"}, {"crossing_name": "Kelebija", "latitude": "46.1", "longitude": "19.5667"}, {"crossing_name": "Merdare", "latitude": "42.9375", "longitude": "21.273611111"}, {"crossing_name": "Kon\u010dulj", "latitude": "42.4744", "longitude": "21.6878"}, {"crossing_name": "Vatin", "latitude": "45.234722222", "longitude": "21.243333333"}, {"crossing_name": "Mali \u017dam", "latitude": "45.210833333", "longitude": "21.339444444"}, {"crossing_name": "Gradinje, Dimitrovgrad", "latitude": "43.01666667", "longitude": "22.8"}, {"crossing_name": "Horgo\u0161", "latitude": "46.155555555", "longitude": "19.9725"}, {"crossing_name": "Ja\u017eince", "latitude": "42.216666666", "longitude": "20.990555555"}, {"crossing_name": "Ba\u010dki Breg", "latitude": "45.91666667", "longitude": "18.93333333"}, {"crossing_name": "Batrovci", "latitude": "45.052777777", "longitude": "19.1325"}, {"crossing_name": "Sastavci", "latitude": "43.5582", "longitude": "19.4249"}], "Poland": [{"crossing_name": "Zgorzelec", "latitude": "51.152777777", "longitude": "15.0"}, {"crossing_name": "Kostrzyn nad Odr\u0105", "latitude": "52.588333333", "longitude": "14.666666666"}, {"crossing_name": "Zebrzydowice, Silesian Voivodeship", "latitude": "49.878863888", "longitude": "18.6142"}, {"crossing_name": "J\u0119drzychowice", "latitude": "51.179684722", "longitude": "15.024444444"}, {"crossing_name": "S\u0142ubice", "latitude": "52.35", "longitude": "14.566666666"}, {"crossing_name": "Gmina Przew\u00f3z", "latitude": "51.48333333", "longitude": "14.95"}, {"crossing_name": "Pielgrzym\u00f3w", "latitude": "50.176388888", "longitude": "17.660833333"}, {"crossing_name": "Olszyna", "latitude": "51.0671", "longitude": "15.37228"}, {"crossing_name": "Dorohusk", "latitude": "51.156944444", "longitude": "23.808333333"}, {"crossing_name": "Korczowa", "latitude": "49.95", "longitude": "23.06667"}, {"crossing_name": "Paczk\u00f3w", "latitude": "50.46395", "longitude": "17.00658"}, {"crossing_name": "Mierosz\u00f3w", "latitude": "50.666944444", "longitude": "16.189722222"}, {"crossing_name": "Paczk\u00f3w", "latitude": "50.45", "longitude": "17.0"}, {"crossing_name": "Bobosz\u00f3w", "latitude": "50.1", "longitude": "16.7"}, {"crossing_name": "\u015awiecko", "latitude": "52.30391", "longitude": "14.59242"}, {"crossing_name": "S\u0142awniowice", "latitude": "50.338055555", "longitude": "17.264166666"}, {"crossing_name": "Bobosz\u00f3w", "latitude": "50.10624", "longitude": "16.69849"}, {"crossing_name": "Zasieki", "latitude": "51.73335", "longitude": "14.66949"}, {"crossing_name": "Zasieki", "latitude": "51.75", "longitude": "14.6667"}, {"crossing_name": "Leszna G\u00f3rna", "latitude": "49.69306", "longitude": "18.73006"}, {"crossing_name": "Cieszyn", "latitude": "49.75", "longitude": "18.633333333"}, {"crossing_name": "Gubin", "latitude": "51.95", "longitude": "14.733333333"}, {"crossing_name": "Leszna G\u00f3rna", "latitude": "49.698972222", "longitude": "18.714477777"}, {"crossing_name": "Medyka", "latitude": "49.804166666", "longitude": "22.931944444"}, {"crossing_name": "Medyka", "latitude": "49.80526", "longitude": "22.92229"}, {"crossing_name": "Bobrowniki, Bia\u0142ystok County", "latitude": "53.1333", "longitude": "23.8833"}, {"crossing_name": "Zwardo\u0144", "latitude": "49.50387", "longitude": "18.97622"}, {"crossing_name": "Zwardo\u0144", "latitude": "49.503611111", "longitude": "18.975555555"}, {"crossing_name": "Trakiszki", "latitude": "54.25", "longitude": "23.2"}, {"crossing_name": "\u0141\u0119knica", "latitude": "51.533333333", "longitude": "14.733333333"}, {"crossing_name": "Buk, Police County", "latitude": "53.49647", "longitude": "14.35584"}, {"crossing_name": "Poraj\u00f3w", "latitude": "50.884444444", "longitude": "14.8325"}, {"crossing_name": "Bezledy", "latitude": "54.3225", "longitude": "20.728055555"}, {"crossing_name": "Ku\u017anica, Podlaskie Voivodeship", "latitude": "53.5", "longitude": "23.63333"}, {"crossing_name": "S\u0142awatycze", "latitude": "51.75", "longitude": "23.55"}, {"crossing_name": "Krajnik Dolny", "latitude": "53.0321", "longitude": "14.3142"}, {"crossing_name": "Osin\u00f3w Dolny", "latitude": "52.851388888", "longitude": "14.145555555"}, {"crossing_name": "Kunowice", "latitude": "52.35095", "longitude": "14.63419"}, {"crossing_name": "Osin\u00f3w Dolny", "latitude": "52.84964", "longitude": "14.14627"}, {"crossing_name": "Buk, Police County", "latitude": "53.49972222", "longitude": "14.35416667"}, {"crossing_name": "Gryfino", "latitude": "53.25243", "longitude": "14.48831"}, {"crossing_name": "Terespol", "latitude": "52.083333333", "longitude": "23.566666666"}, {"crossing_name": "Po\u0142owce", "latitude": "52.48333", "longitude": "23.36667"}, {"crossing_name": "Ko\u0142baskowo", "latitude": "53.33333", "longitude": "14.43333"}, {"crossing_name": "Ko\u0142baskowo", "latitude": "53.33641", "longitude": "14.43835"}, {"crossing_name": "Dobieszczyn", "latitude": "53.60027778", "longitude": "14.33305556"}, {"crossing_name": "Hrebenne, Tomasz\u00f3w Lubelski County", "latitude": "50.28305556", "longitude": "23.57611111"}, {"crossing_name": "Hrebenne, Tomasz\u00f3w Lubelski County", "latitude": "50.28309", "longitude": "23.57889"}, {"crossing_name": "W\u0142odawa", "latitude": "51.55", "longitude": "23.55"}, {"crossing_name": "Kukuryki", "latitude": "52.10778", "longitude": "23.56361"}, {"crossing_name": "Go\u0142dap", "latitude": "54.30631", "longitude": "22.30362"}, {"crossing_name": "\u015awinouj\u015bcie", "latitude": "53.916666666", "longitude": "14.25"}, {"crossing_name": "Zosin", "latitude": "50.85833333", "longitude": "24.1125"}, {"crossing_name": "Werchrata", "latitude": "50.25664", "longitude": "23.47229"}, {"crossing_name": "Werchrata", "latitude": "50.25", "longitude": "23.4667"}, {"crossing_name": "Gorzyczki, Silesian Voivodeship", "latitude": "49.94806", "longitude": "18.40472"}, {"crossing_name": "Szczecin", "latitude": "53.424722222", "longitude": "14.555277777"}, {"crossing_name": "Kudowa-Zdr\u00f3j", "latitude": "50.433333333", "longitude": "16.233333333"}, {"crossing_name": "Kudowa-Zdr\u00f3j", "latitude": "50.44297", "longitude": "16.24397"}, {"crossing_name": "Kode\u0144", "latitude": "51.9", "longitude": "23.6"}], "People's Republic of Bulgaria": [{"crossing_name": "Vidin", "latitude": "43.98869", "longitude": "22.874058"}], "Rwanda": [{"crossing_name": "Gatuna", "latitude": "-1.435", "longitude": "30.02111111"}, {"crossing_name": "Gisenyi", "latitude": "-1.692777777", "longitude": "29.25"}, {"crossing_name": "Ruhwa, Rwanda", "latitude": "-2.73111", "longitude": "29.0414"}, {"crossing_name": "Cyangugu", "latitude": "-2.483333333", "longitude": "28.896666666"}, {"crossing_name": "Cyanika", "latitude": "-1.437222222", "longitude": "29.710277777"}, {"crossing_name": "Nemba", "latitude": "-2.33", "longitude": "30.2025"}, {"crossing_name": "Kagitumba", "latitude": "-1.07222222", "longitude": "30.45"}], "Bosnia and Herzegovina": [{"crossing_name": "Dubica", "latitude": "45.183333333", "longitude": "16.8"}, {"crossing_name": "Ripa\u010d", "latitude": "44.7653", "longitude": "15.9553"}, {"crossing_name": "Brod", "latitude": "45.133333333", "longitude": "17.983333333"}, {"crossing_name": "Br\u010dko", "latitude": "44.878333333", "longitude": "18.809166666"}, {"crossing_name": "Kostajnica", "latitude": "45.216666666", "longitude": "16.533333333"}, {"crossing_name": "Klobuk", "latitude": "42.71305556", "longitude": "18.53222222"}, {"crossing_name": "Gradi\u0161ka", "latitude": "45.133333333", "longitude": "17.25"}, {"crossing_name": "Srbac", "latitude": "45.1", "longitude": "17.516666666"}, {"crossing_name": "Novi Grad", "latitude": "45.046388888", "longitude": "16.377777777"}, {"crossing_name": "\u0160amac", "latitude": "45.066666666", "longitude": "18.466666666"}, {"crossing_name": "Neum", "latitude": "42.926111111", "longitude": "17.616666666"}, {"crossing_name": "Biha\u0107", "latitude": "44.816666666", "longitude": "15.866666666"}, {"crossing_name": "Metaljka", "latitude": "43.538611111", "longitude": "19.156388888"}, {"crossing_name": "Velika Kladu\u0161a", "latitude": "45.166666666", "longitude": "15.8"}, {"crossing_name": "Doljani", "latitude": "43.045555555", "longitude": "17.68"}], "Singapore": [{"crossing_name": "Tuas", "latitude": "1.316666666", "longitude": "103.65"}, {"crossing_name": "Singapore", "latitude": "1.3", "longitude": "103.8"}, {"crossing_name": "Woodlands", "latitude": "1.436269444", "longitude": "103.786705555"}], "Canada": [{"crossing_name": "Monchy, Saskatchewan", "latitude": "49.0167", "longitude": "-107.834"}, {"crossing_name": "Beebe Plain", "latitude": "45.00666667", "longitude": "-72.14116667"}, {"crossing_name": "Chartierville", "latitude": "45.3", "longitude": "-71.2"}, {"crossing_name": "Point Edward", "latitude": "42.9931", "longitude": "-82.4083"}, {"crossing_name": "Fort Erie", "latitude": "42.9", "longitude": "-78.916666666"}, {"crossing_name": "Frontenac Islands", "latitude": "44.2", "longitude": "-76.3833"}, {"crossing_name": "Sault Ste. Marie", "latitude": "46.5333", "longitude": "-84.35"}, {"crossing_name": "Windsor", "latitude": "42.31729", "longitude": "-83.03526"}, {"crossing_name": "Niagara Falls", "latitude": "43.116666666", "longitude": "-79.066666666"}, {"crossing_name": "Saint-Bernard-de-Lacolle", "latitude": "45.0833", "longitude": "-73.4167"}, {"crossing_name": "Saint-Georges-de-Clarenceville", "latitude": "45.0667", "longitude": "-73.25"}, {"crossing_name": "Vancouver", "latitude": "49.260833333", "longitude": "-123.113888888"}, {"crossing_name": "Kingsgate, British Columbia", "latitude": "49.0", "longitude": "-116.183"}, {"crossing_name": "Fort Frances", "latitude": "48.616666666", "longitude": "-93.4"}, {"crossing_name": "Abercorn", "latitude": "45.0333", "longitude": "-72.6667"}, {"crossing_name": "St. Stephen", "latitude": "45.192222222", "longitude": "-67.277222222"}], "Democratic Republic of the Congo": [{"crossing_name": "Ishasha, Uganda", "latitude": "-0.74", "longitude": "29.625"}, {"crossing_name": "Kinshasa", "latitude": "-4.331666666", "longitude": "15.313888888"}, {"crossing_name": "Bukavu", "latitude": "-2.5", "longitude": "28.866666666"}, {"crossing_name": "Bukavu", "latitude": "-2.490833333", "longitude": "28.842777777"}, {"crossing_name": "Aba, Democratic Republic of the Congo", "latitude": "3.86666667", "longitude": "30.23333333"}, {"crossing_name": "Kasumbalesa", "latitude": "-12.265555555", "longitude": "27.795277777"}, {"crossing_name": "Bolobo", "latitude": "-2.16", "longitude": "16.24"}, {"crossing_name": "Bunagana, Democratic Republic of the Congo", "latitude": "-1.3", "longitude": "29.595"}, {"crossing_name": "Zongo", "latitude": "4.35", "longitude": "18.6"}, {"crossing_name": "Bagbele", "latitude": "4.33333333", "longitude": "29.26666667"}, {"crossing_name": "Goma", "latitude": "-1.679444444", "longitude": "29.233611111"}, {"crossing_name": "Doruma", "latitude": "4.73333333", "longitude": "27.7"}, {"crossing_name": "Lukolela", "latitude": "-1.06072", "longitude": "17.17595"}, {"crossing_name": "Busengo, Democratic Republic of the Congo", "latitude": "-1.160277777", "longitude": "29.581388888"}, {"crossing_name": "Mobayi-Mbongo", "latitude": "4.3", "longitude": "21.183333333"}], "Slovenia": [{"crossing_name": "Gornja Radgona", "latitude": "46.681005313", "longitude": "15.988345636"}, {"crossing_name": "Imeno", "latitude": "46.131403", "longitude": "15.599058"}, {"crossing_name": "Municipality of Zavr\u010d", "latitude": "46.366666666", "longitude": "16.05"}, {"crossing_name": "Metlika", "latitude": "45.64722", "longitude": "15.31417"}, {"crossing_name": "\u0160empeter pri Gorici", "latitude": "45.928333", "longitude": "13.637778"}, {"crossing_name": "Dravograd", "latitude": "46.59004243", "longitude": "15.017967473"}, {"crossing_name": "Ormo\u017e", "latitude": "46.407125458", "longitude": "16.150534332"}, {"crossing_name": "Obre\u017eje", "latitude": "45.849167", "longitude": "15.7"}, {"crossing_name": "Se\u010dovlje", "latitude": "45.475502777", "longitude": "13.616866666"}, {"crossing_name": "Nova Gorica", "latitude": "45.966666666", "longitude": "13.65"}, {"crossing_name": "Pince", "latitude": "46.525556", "longitude": "16.522222"}, {"crossing_name": "\u0160krilje", "latitude": "45.603889", "longitude": "15.273333"}, {"crossing_name": "Solkan", "latitude": "45.969444", "longitude": "13.645278"}, {"crossing_name": "Vrtojba", "latitude": "45.908889", "longitude": "13.636389"}, {"crossing_name": "Krvavi Potok", "latitude": "45.618961111", "longitude": "13.909511111"}, {"crossing_name": "Podljubelj", "latitude": "46.397778", "longitude": "14.286944"}, {"crossing_name": "Spodnje \u0160kofije", "latitude": "45.571389", "longitude": "13.791389"}, {"crossing_name": "Ankaran", "latitude": "45.579314", "longitude": "13.737928"}, {"crossing_name": "Lendava", "latitude": "46.566201748", "longitude": "16.449885788"}, {"crossing_name": "Jesenice", "latitude": "46.436572222", "longitude": "14.060172222"}, {"crossing_name": "Budinci", "latitude": "46.859767", "longitude": "16.256483"}, {"crossing_name": "Ore\u0161je na Bizeljskem", "latitude": "46.0478", "longitude": "15.70985"}, {"crossing_name": "Ore\u0161je na Bizeljskem", "latitude": "46.048889", "longitude": "15.7075"}, {"crossing_name": "Bistrica ob Sotli", "latitude": "46.056892481", "longitude": "15.662488924"}, {"crossing_name": "Ro\u017ena Dolina", "latitude": "45.942222", "longitude": "13.639444"}, {"crossing_name": "Plavje", "latitude": "45.573056", "longitude": "13.801111"}, {"crossing_name": "Petrina", "latitude": "45.464722", "longitude": "14.852778"}, {"crossing_name": "Q65989379", "latitude": "45.465027777", "longitude": "13.622083333"}], "Brazil": [{"crossing_name": "Foz do Igua\u00e7u", "latitude": "-25.54", "longitude": "-54.5875"}, {"crossing_name": "Uruguaiana", "latitude": "-29.755", "longitude": "-57.087777777"}, {"crossing_name": "Chu\u00ed", "latitude": "-33.69111", "longitude": "-53.45667"}, {"crossing_name": "Acegu\u00e1", "latitude": "-31.871944444", "longitude": "-54.161388888"}, {"crossing_name": "Pacaraima", "latitude": "4.430833333", "longitude": "-61.145833333"}, {"crossing_name": "Santana do Livramento", "latitude": "-30.890833333", "longitude": "-55.532777777"}, {"crossing_name": "Jaguar\u00e3o", "latitude": "-32.565833333", "longitude": "-53.375833333"}, {"crossing_name": "Santa Rosa do Purus", "latitude": "-9.432777777", "longitude": "-70.492777777"}, {"crossing_name": "Barra do Quara\u00ed", "latitude": "-30.206944444", "longitude": "-57.555"}, {"crossing_name": "Ponta Por\u00e3", "latitude": "-22.535833333", "longitude": "-55.725833333"}, {"crossing_name": "Bonfim", "latitude": "3.36", "longitude": "-59.832777777"}, {"crossing_name": "Brasil\u00e9ia", "latitude": "-11.01", "longitude": "-68.747777777"}, {"crossing_name": "Cucui", "latitude": "1.2", "longitude": "-66.83333333"}, {"crossing_name": "Quara\u00ed", "latitude": "-30.387777777", "longitude": "-56.450833333"}, {"crossing_name": "S\u00e3o Borja", "latitude": "-28.660833333", "longitude": "-56.003888888"}, {"crossing_name": "Corumb\u00e1", "latitude": "-19.008888888", "longitude": "-57.652777777"}, {"crossing_name": "Oiapoque", "latitude": "3.842777777", "longitude": "-51.835"}, {"crossing_name": "Tabatinga", "latitude": "-4.2525", "longitude": "-69.938055555"}], "Albania": [{"crossing_name": "Kapshtic\u00eb", "latitude": "40.6025", "longitude": "21.01"}, {"crossing_name": "Morin\u00eb", "latitude": "42.1418", "longitude": "20.5307"}, {"crossing_name": "Konispol", "latitude": "39.65889", "longitude": "20.18139"}, {"crossing_name": "Konispol", "latitude": "39.666666666", "longitude": "20.183333333"}, {"crossing_name": "Sopik", "latitude": "40.08611111", "longitude": "20.41277778"}, {"crossing_name": "Hani i Hotit", "latitude": "42.3372822", "longitude": "19.4344633"}, {"crossing_name": "Tushemisht", "latitude": "40.900277777", "longitude": "20.720555555"}, {"crossing_name": "Grabom", "latitude": "42.42194444", "longitude": "19.51"}, {"crossing_name": "Zogaj", "latitude": "42.0708", "longitude": "19.3992"}, {"crossing_name": "Vermosh", "latitude": "42.592421", "longitude": "19.687656"}, {"crossing_name": "Muriqan", "latitude": "42.015", "longitude": "19.40305556"}, {"crossing_name": "Bilisht", "latitude": "40.6275", "longitude": "20.99"}, {"crossing_name": "Bllat\u00eb e Sip\u00ebrme", "latitude": "41.564444444", "longitude": "20.490277777"}, {"crossing_name": "Bllat\u00eb e Sip\u00ebrme", "latitude": "41.56277778", "longitude": "20.48944444"}, {"crossing_name": "Shishtavec", "latitude": "41.98", "longitude": "20.6051"}, {"crossing_name": "Goric\u00eb e Madhe", "latitude": "40.8942", "longitude": "20.9028"}, {"crossing_name": "Verniku", "latitude": "40.64444444", "longitude": "21.02388889"}, {"crossing_name": "Trebisht", "latitude": "41.416666666", "longitude": "20.533333333"}], "Botswana": [{"crossing_name": "Makopong", "latitude": "-25.331388888", "longitude": "22.978611111"}, {"crossing_name": "Bray", "latitude": "-25.4512005", "longitude": "23.70727538"}, {"crossing_name": "Kasane", "latitude": "-17.798333333", "longitude": "25.153611111"}, {"crossing_name": "Ramotswa", "latitude": "-24.866666666", "longitude": "25.816666666"}, {"crossing_name": "Sikwane", "latitude": "-24.6342", "longitude": "26.3946"}, {"crossing_name": "Kazungula", "latitude": "-17.803888888", "longitude": "25.241111111"}, {"crossing_name": "Middlepits", "latitude": "-26.6625", "longitude": "21.88805556"}, {"crossing_name": "Bokspits", "latitude": "-26.89722222", "longitude": "20.69055556"}, {"crossing_name": "Ramokgwebana", "latitude": "-20.588177777", "longitude": "27.651233333"}, {"crossing_name": "Pandamatenga", "latitude": "-18.543055555", "longitude": "25.643055555"}, {"crossing_name": "Tlokweng", "latitude": "-24.6686", "longitude": "25.9711"}], "Ottoman Empire": [{"crossing_name": "Vidin", "latitude": "43.98869", "longitude": "22.874058"}], "Chad": [{"crossing_name": "Mani, Chad", "latitude": "12.733333333", "longitude": "14.683333333"}, {"crossing_name": "Daguessa", "latitude": "12.0", "longitude": "22.45"}, {"crossing_name": "Bongor", "latitude": "10.280555555", "longitude": "15.372222222"}, {"crossing_name": "N'Djamena", "latitude": "12.11", "longitude": "15.05"}, {"crossing_name": "Adr\u00e9", "latitude": "13.466666666", "longitude": "22.2"}], "Lesotho": [{"crossing_name": "Maseru", "latitude": "-29.31", "longitude": "27.48"}, {"crossing_name": "Hlotse", "latitude": "-28.873361111", "longitude": "28.041583333"}, {"crossing_name": "Qacha's Nek", "latitude": "-30.115277777", "longitude": "28.689444444"}, {"crossing_name": "Maputsoe", "latitude": "-28.883333333", "longitude": "27.9"}], "Hungary": [{"crossing_name": "S\u00e1toralja\u00fajhely", "latitude": "48.39405", "longitude": "21.65611"}, {"crossing_name": "Tiszabecs", "latitude": "48.098719444", "longitude": "22.822230555"}, {"crossing_name": "Sopron", "latitude": "47.683333333", "longitude": "16.583333333"}, {"crossing_name": "Rajka", "latitude": "47.996888888", "longitude": "17.198319444"}, {"crossing_name": "Kom\u00e1rom", "latitude": "47.74", "longitude": "18.121666666"}, {"crossing_name": "Tompa", "latitude": "46.2049292", "longitude": "19.5374011"}, {"crossing_name": "Hont, Hungary", "latitude": "48.05057", "longitude": "18.99261"}, {"crossing_name": "Udvar", "latitude": "45.90429", "longitude": "18.65972"}, {"crossing_name": "L\u00f3nya", "latitude": "48.323169444", "longitude": "22.274569444"}, {"crossing_name": "Gyula", "latitude": "46.65", "longitude": "21.282777777"}, {"crossing_name": "Balf", "latitude": "47.65", "longitude": "16.6655"}, {"crossing_name": "Battonya", "latitude": "46.283333333", "longitude": "21.016666666"}, {"crossing_name": "Z\u00e1k\u00e1ny", "latitude": "46.251316", "longitude": "16.950729"}, {"crossing_name": "Esztergom", "latitude": "47.785555555", "longitude": "18.740277777"}, {"crossing_name": "L\u0151k\u00f6sh\u00e1za", "latitude": "46.433333333", "longitude": "21.233333333"}, {"crossing_name": "Balassagyarmat", "latitude": "48.071194444", "longitude": "19.293722222"}, {"crossing_name": "Eperjeske", "latitude": "48.35", "longitude": "22.216666666"}, {"crossing_name": "Kiszombor", "latitude": "46.183333333", "longitude": "20.433333333"}, {"crossing_name": "R\u00f6szke", "latitude": "46.183333333", "longitude": "20.05"}, {"crossing_name": "Szob", "latitude": "47.817777777", "longitude": "18.866666666"}, {"crossing_name": "Hercegsz\u00e1nt\u00f3", "latitude": "45.95", "longitude": "18.933333333"}, {"crossing_name": "Hegyeshalom", "latitude": "47.912911111", "longitude": "17.154438888"}, {"crossing_name": "Beregsur\u00e1ny", "latitude": "48.16219", "longitude": "22.55321"}, {"crossing_name": "Barcs", "latitude": "45.96", "longitude": "17.46"}, {"crossing_name": "Z\u00e1hony", "latitude": "48.406944444", "longitude": "22.174444444"}, {"crossing_name": "Barab\u00e1s", "latitude": "48.233333333", "longitude": "22.433333333"}, {"crossing_name": "Kelebia", "latitude": "46.1973923", "longitude": "19.6058436"}, {"crossing_name": "Nagylak", "latitude": "46.166666666", "longitude": "20.716666666"}, {"crossing_name": "Letenye", "latitude": "46.433611111", "longitude": "16.722222222"}, {"crossing_name": "Sz\u0151ny", "latitude": "47.733333333", "longitude": "18.166666666"}], "Jordan": [{"crossing_name": "Aqaba", "latitude": "29.516666666", "longitude": "35.0"}], "Kingdom of Bulgaria": [{"crossing_name": "Vidin", "latitude": "43.98869", "longitude": "22.874058"}], "Senegal": [{"crossing_name": "Kidira", "latitude": "14.457444444", "longitude": "-12.210638888"}, {"crossing_name": "Q3304026", "latitude": "13.6", "longitude": "-15.583"}, {"crossing_name": "Nay\u00e9, Senegal", "latitude": "14.41666667", "longitude": "-12.2"}, {"crossing_name": "Mpack, Senegal", "latitude": "12.46194444", "longitude": "-16.23805556"}, {"crossing_name": "Santhie Sadi", "latitude": "13.593611111", "longitude": "-16.420277777"}], "Italy": [{"crossing_name": "San Dorligo della Valle", "latitude": "45.6225", "longitude": "13.857777777"}, {"crossing_name": "Gorizia", "latitude": "45.9352", "longitude": "13.6193"}, {"crossing_name": "Monrupino", "latitude": "45.72284", "longitude": "13.79098"}, {"crossing_name": "Villa Opicina", "latitude": "45.6875", "longitude": "13.788611"}, {"crossing_name": "Courmayeur", "latitude": "45.783333333", "longitude": "6.966666666"}, {"crossing_name": "Lavena Ponte Tresa", "latitude": "45.966666666", "longitude": "8.85"}, {"crossing_name": "Rome", "latitude": "41.893055555", "longitude": "12.482777777"}, {"crossing_name": "Briga Alta", "latitude": "44.0812973", "longitude": "7.7408887"}, {"crossing_name": "Valsolda", "latitude": "46.033333333", "longitude": "9.05"}, {"crossing_name": "Ventimiglia", "latitude": "43.790277777", "longitude": "7.608333333"}, {"crossing_name": "Muggia", "latitude": "45.6", "longitude": "13.766666666"}], "Central African Republic": [{"crossing_name": "Golongoso", "latitude": "9.0", "longitude": "19.15"}, {"crossing_name": "Bangassou", "latitude": "4.741388888", "longitude": "22.818333333"}, {"crossing_name": "Bangassou", "latitude": "4.737", "longitude": "22.819"}, {"crossing_name": "Mobaye", "latitude": "4.316666666", "longitude": "21.183333333"}, {"crossing_name": "Mialouto", "latitude": "8.933333333", "longitude": "19.716666666"}, {"crossing_name": "Am Dafok", "latitude": "10.46555556", "longitude": "23.30083333"}, {"crossing_name": "Kolo, Central African Republic", "latitude": "8.933333333", "longitude": "19.75"}, {"crossing_name": "Njoko", "latitude": "9.01666667", "longitude": "19.56666667"}, {"crossing_name": "Kori, Central African Republic", "latitude": "9.0", "longitude": "19.5"}, {"crossing_name": "Bangui", "latitude": "4.37325", "longitude": "18.562833333"}, {"crossing_name": "Kouango", "latitude": "4.966666666", "longitude": "19.983333333"}], "Russia": [{"crossing_name": "Mamonovo", "latitude": "54.466666666", "longitude": "19.933333333"}, {"crossing_name": "Ivangorod", "latitude": "59.375", "longitude": "28.205277777"}, {"crossing_name": "Troitsk", "latitude": "54.083333333", "longitude": "61.566666666"}, {"crossing_name": "Pogranichny", "latitude": "44.413797222", "longitude": "131.375713888"}, {"crossing_name": "Borisoglebsky, Murmansk Oblast", "latitude": "69.65", "longitude": "30.143888888"}, {"crossing_name": "Bagrationovsk", "latitude": "54.383333333", "longitude": "20.633333333"}, {"crossing_name": "Kyakhta", "latitude": "50.35", "longitude": "106.45"}, {"crossing_name": "Vyartsilya", "latitude": "62.176944444", "longitude": "30.697222222"}, {"crossing_name": "Blagoveshchensk", "latitude": "50.257777777", "longitude": "127.536388888"}, {"crossing_name": "Khasan", "latitude": "42.428333333", "longitude": "130.645555555"}, {"crossing_name": "Naushki", "latitude": "50.388611111", "longitude": "106.104444444"}, {"crossing_name": "Adlersky City District", "latitude": "43.433611111", "longitude": "39.916111111"}, {"crossing_name": "Sovetsk", "latitude": "55.083333333", "longitude": "21.883333333"}, {"crossing_name": "Svetogorsk", "latitude": "61.108333333", "longitude": "28.858333333"}, {"crossing_name": "Pechory", "latitude": "57.816666666", "longitude": "27.6"}, {"crossing_name": "Zabaykalsk", "latitude": "49.651388888", "longitude": "117.326944444"}, {"crossing_name": "Adler Microdistrict", "latitude": "43.428888888", "longitude": "39.923888888"}, {"crossing_name": "Suoper\u00e4", "latitude": "65.798333333", "longitude": "30.1075"}, {"crossing_name": "Sagarchin", "latitude": "50.9", "longitude": "55.9167"}, {"crossing_name": "Gusev", "latitude": "54.59222", "longitude": "22.19972"}, {"crossing_name": "Kraskino", "latitude": "42.708333333", "longitude": "130.781944444"}, {"crossing_name": "Vesyoloye", "latitude": "43.411388888", "longitude": "40.0025"}], "Argentina": [{"crossing_name": "Aguas Blancas", "latitude": "-22.736", "longitude": "-64.354"}, {"crossing_name": "La Quiaca", "latitude": "-22.105555555", "longitude": "-65.6"}, {"crossing_name": "Clorinda, Formosa", "latitude": "-25.291388888", "longitude": "-57.718333333"}, {"crossing_name": "Puerto Iguaz\u00fa", "latitude": "-25.610833333", "longitude": "-54.580277777"}, {"crossing_name": "Paso de los Libres", "latitude": "-29.716666666", "longitude": "-57.083333333"}, {"crossing_name": "Los Cipreses", "latitude": "-43.16666667", "longitude": "-71.75"}, {"crossing_name": "Posadas", "latitude": "-27.366666666", "longitude": "-55.896944444"}, {"crossing_name": "Gualeguaych\u00fa", "latitude": "-33.007777777", "longitude": "-58.511111111"}, {"crossing_name": "Concordia", "latitude": "-31.392222222", "longitude": "-58.016944444"}, {"crossing_name": "Los Antiguos", "latitude": "-46.55", "longitude": "-71.616666666"}, {"crossing_name": "Salvador Mazza", "latitude": "-22.05", "longitude": "-63.7"}, {"crossing_name": "Santo Tom\u00e9", "latitude": "-28.55", "longitude": "-56.05"}], "Sweden": [{"crossing_name": "Helsingborg", "latitude": "56.042411686", "longitude": "12.720996359"}, {"crossing_name": "Karesuando", "latitude": "68.44069986", "longitude": "22.480471878"}, {"crossing_name": "Karungi", "latitude": "66.045500108", "longitude": "23.950563459"}, {"crossing_name": "Haparanda", "latitude": "65.834178177", "longitude": "24.117032965"}, {"crossing_name": "Vassbotten/Holtet", "latitude": "58.87840556", "longitude": "11.5344"}, {"crossing_name": "Eda glasbruk", "latitude": "59.916491157", "longitude": "12.269886231"}, {"crossing_name": "Pello", "latitude": "66.801886534", "longitude": "23.974186885"}, {"crossing_name": "Riksgr\u00e4nsen", "latitude": "68.427777777", "longitude": "18.122222222"}, {"crossing_name": "\u00d6vertorne\u00e5", "latitude": "66.388067238", "longitude": "23.643648052"}, {"crossing_name": "Kuttainen", "latitude": "68.383416553", "longitude": "22.824324586"}], "Djibouti": [{"crossing_name": "Galafi", "latitude": "11.715833333", "longitude": "41.836111111"}, {"crossing_name": "Guelile", "latitude": "11.09393", "longitude": "42.64802"}, {"crossing_name": "Loyada", "latitude": "11.46111111", "longitude": "43.25277778"}, {"crossing_name": "Dadda`to", "latitude": "12.366666666", "longitude": "42.7"}], "United Arab Emirates": [{"crossing_name": "Al Ain", "latitude": "24.2075", "longitude": "55.744722222"}, {"crossing_name": "Dibba Al-Fujairah", "latitude": "25.591", "longitude": "56.26"}, {"crossing_name": "Dibba Al-Fujairah", "latitude": "25.616667", "longitude": "56.266667"}, {"crossing_name": "Dibba Al-Fujairah", "latitude": "25.6", "longitude": "56.35"}, {"crossing_name": "Sayh Mudayrah", "latitude": "24.83222222", "longitude": "56.03944444"}, {"crossing_name": "Mezyad, Al-Ain", "latitude": "24.021111", "longitude": "55.833333"}, {"crossing_name": "Nahwa", "latitude": "25.273333", "longitude": "56.285167"}], "Republic of Ireland": [{"crossing_name": "Muff", "latitude": "54.835599", "longitude": "-7.477913"}, {"crossing_name": "Omeath", "latitude": "54.09", "longitude": "-6.258333333"}, {"crossing_name": "Lifford", "latitude": "54.835599", "longitude": "-7.477913"}, {"crossing_name": "Blacklion", "latitude": "54.283333", "longitude": "-7.866667"}, {"crossing_name": "Clones", "latitude": "54.180555555", "longitude": "-7.2325"}, {"crossing_name": "Ballyconnell", "latitude": "54.116666666", "longitude": "-7.583333333"}, {"crossing_name": "Pettigo", "latitude": "54.549293", "longitude": "-7.831235"}, {"crossing_name": "Pettigo", "latitude": "54.549", "longitude": "-7.831"}], "Czech Republic": [{"crossing_name": "Doln\u00ed Dvo\u0159i\u0161t\u011b", "latitude": "48.656498545", "longitude": "14.452205769"}, {"crossing_name": "Hr\u00e1dek nad Nisou", "latitude": "50.852852953", "longitude": "14.844661931"}, {"crossing_name": "Jizerka", "latitude": "50.815555555", "longitude": "15.350833333"}, {"crossing_name": "Varnsdorf", "latitude": "50.911612411", "longitude": "14.618353683"}, {"crossing_name": "Francova Lhota", "latitude": "49.201733666", "longitude": "18.111758641"}, {"crossing_name": "Velk\u00e9 Kun\u011btice", "latitude": "50.316584413", "longitude": "17.26600558"}, {"crossing_name": "\u010cesk\u00fd T\u011b\u0161\u00edn", "latitude": "49.746110801", "longitude": "18.626170385"}, {"crossing_name": "Rozvadov", "latitude": "49.668287772", "longitude": "12.551935089"}, {"crossing_name": "\u010cesk\u00e9 Velenice", "latitude": "48.768573633", "longitude": "14.963673627"}, {"crossing_name": "Lou\u010dn\u00e1 pod Kl\u00ednovcem", "latitude": "50.418684947", "longitude": "12.981577596"}, {"crossing_name": "Rumburk", "latitude": "50.951576367", "longitude": "14.557110137"}, {"crossing_name": "B\u00edl\u00fd Potok", "latitude": "50.41138889", "longitude": "16.99472222"}, {"crossing_name": "V\u011b\u0159\u0148ovice", "latitude": "49.926944444", "longitude": "18.416666666"}, {"crossing_name": "N\u00e1chod", "latitude": "50.416738226", "longitude": "16.162974008"}, {"crossing_name": "B\u0159eclav", "latitude": "48.758991122", "longitude": "16.882020775"}, {"crossing_name": "Mikulov", "latitude": "48.805586996", "longitude": "16.637789181"}, {"crossing_name": "\u010cesk\u00fd Ji\u0159et\u00edn", "latitude": "50.707576376", "longitude": "13.54748207"}, {"crossing_name": "Krnov", "latitude": "50.089666916", "longitude": "17.70390892"}, {"crossing_name": "Mn\u00ed\u0161ek v Kru\u0161n\u00fdch hor\u00e1ch", "latitude": "50.628055555", "longitude": "13.503333333"}, {"crossing_name": "\u017delezn\u00e1 Ruda", "latitude": "49.137540252", "longitude": "13.235220012"}, {"crossing_name": "Lan\u017ehot", "latitude": "48.724453275", "longitude": "16.966936264"}, {"crossing_name": "Nov\u00e1 Ves v Hor\u00e1ch", "latitude": "50.594835309", "longitude": "13.482544982"}], "Pakistan": [{"crossing_name": "Chaman", "latitude": "30.92102", "longitude": "66.45975"}, {"crossing_name": "Sust", "latitude": "36.69", "longitude": "74.821"}, {"crossing_name": "Taftan, Balochistan", "latitude": "28.28", "longitude": "62.35"}, {"crossing_name": "Torkham", "latitude": "34.121111111", "longitude": "71.101944444"}, {"crossing_name": "Ghulam Khan", "latitude": "34.13333333", "longitude": "70.04583333"}, {"crossing_name": "Ganda Singh Wala", "latitude": "31.037975", "longitude": "74.51846389"}], "Moldova": [{"crossing_name": "Giurgiule\u0219ti", "latitude": "45.483333333", "longitude": "28.2"}, {"crossing_name": "Mirnoe", "latitude": "45.733333333", "longitude": "28.566666666"}, {"crossing_name": "Coste\u0219ti", "latitude": "47.858333333", "longitude": "27.258611111"}, {"crossing_name": "Cahul", "latitude": "45.9075", "longitude": "28.194444444"}, {"crossing_name": "Stoianovca", "latitude": "46.259166666", "longitude": "28.164444444"}, {"crossing_name": "Lipcani", "latitude": "48.265277777", "longitude": "26.803888888"}, {"crossing_name": "Sculeni", "latitude": "47.31666667", "longitude": "27.63333333"}, {"crossing_name": "Leu\u0219eni", "latitude": "46.80916667", "longitude": "28.19944444"}, {"crossing_name": "Ungheni", "latitude": "47.204166666", "longitude": "27.795833333"}, {"crossing_name": "Otaci", "latitude": "48.43", "longitude": "27.793888888"}, {"crossing_name": "Criva", "latitude": "48.271111111", "longitude": "26.672222222"}], "Slovakia": [{"crossing_name": "Rusovce", "latitude": "48.05361111", "longitude": "17.14777778"}, {"crossing_name": "Ve\u013ek\u00e9 Slemence", "latitude": "48.511111111", "longitude": "22.154166666"}, {"crossing_name": "Bratislava", "latitude": "48.144722222", "longitude": "17.112777777"}, {"crossing_name": "Pinkovce", "latitude": "48.606944444", "longitude": "22.184722222"}, {"crossing_name": "Slovensk\u00e9 Nov\u00e9 Mesto", "latitude": "48.400833333", "longitude": "21.669444444"}, {"crossing_name": "Kom\u00e1rno", "latitude": "47.763333333", "longitude": "18.128333333"}, {"crossing_name": "Slovensk\u00e9 \u010earmoty", "latitude": "48.09166667", "longitude": "19.29166667"}, {"crossing_name": "\u010cunovo", "latitude": "48.02972222", "longitude": "17.19888889"}, {"crossing_name": "Mn\u00ed\u0161ek nad Popradom", "latitude": "49.41333333", "longitude": "20.71472222"}, {"crossing_name": "\u0160t\u00farovo", "latitude": "47.799166666", "longitude": "18.718055555"}, {"crossing_name": "\u0160ahy", "latitude": "48.066666666", "longitude": "18.966666666"}, {"crossing_name": "K\u00faty", "latitude": "48.658888888", "longitude": "17.019444444"}, {"crossing_name": "Jarovce", "latitude": "48.06527778", "longitude": "17.11333333"}, {"crossing_name": "Vy\u0161n\u00e9 Nemeck\u00e9", "latitude": "48.66111111", "longitude": "22.26361111"}, {"crossing_name": "Petr\u017ealka", "latitude": "48.133333333", "longitude": "17.116666666"},